city,state,state_id,lat,lng
"Abbeville","Alabama","AL",31.5664,-85.2528
"Adamsville","Alabama","AL",33.6073,-86.9740
"Addison","Alabama","AL",34.2017,-87.1765
"Akron","Alabama","AL",32.8785,-87.7429
"Alabaster","Alabama","AL",33.2198,-86.8225
"Albertville","Alabama","AL",34.2633,-86.2108
"Alexander City","Alabama","AL",32.9229,-85.9358
"Aliceville","Alabama","AL",33.1237,-88.1593
"Allgood","Alabama","AL",33.9064,-86.5178
"Altoona","Alabama","AL",34.0308,-86.3179
"Andalusia","Alabama","AL",31.3102,-86.4781
"Anderson","Alabama","AL",34.9147,-87.2716
"Anniston","Alabama","AL",33.6712,-85.8135
"Arab","Alabama","AL",34.3309,-86.4991
"Ardmore","Alabama","AL",34.9847,-86.8373
"Argo","Alabama","AL",33.6963,-86.5063
"Ariton","Alabama","AL",31.5978,-85.7131
"Arley","Alabama","AL",34.0885,-87.2075
"Ashford","Alabama","AL",31.1858,-85.2359
"Ashland","Alabama","AL",33.2703,-85.8337
"Ashville","Alabama","AL",33.8331,-86.2698
"Athens","Alabama","AL",34.7843,-86.9503
"Atmore","Alabama","AL",31.0927,-87.4762
"Attalla","Alabama","AL",34.0050,-86.1039
"Auburn","Alabama","AL",32.6087,-85.4903
"Autaugaville","Alabama","AL",32.4320,-86.6578
"Avon","Alabama","AL",31.1797,-85.2790
"Babbie","Alabama","AL",31.3022,-86.3229
"Baileyton","Alabama","AL",34.2609,-86.6083
"Banks","Alabama","AL",31.8132,-85.8364
"Bay Minette","Alabama","AL",30.8930,-87.7912
"Bayou La Batre","Alabama","AL",30.4126,-88.2611
"Bear Creek","Alabama","AL",34.2651,-87.7164
"Beatrice","Alabama","AL",31.7332,-87.2090
"Beaverton","Alabama","AL",33.9354,-88.0218
"Belk","Alabama","AL",33.6517,-87.9286
"Belle Fontaine","Alabama","AL",30.4920,-88.1131
"Benton","Alabama","AL",32.3078,-86.8180
"Berlin","Alabama","AL",34.1862,-86.7473
"Berry","Alabama","AL",33.6623,-87.6079
"Bessemer","Alabama","AL",33.3712,-86.9728
"Billingsley","Alabama","AL",32.6610,-86.7087
"Birmingham","Alabama","AL",33.5279,-86.7971
"Black","Alabama","AL",31.0099,-85.7440
"Blountsville","Alabama","AL",34.0814,-86.5867
"Blue Springs","Alabama","AL",31.6635,-85.5035
"Boaz","Alabama","AL",34.1985,-86.1529
"Boligee","Alabama","AL",32.7699,-88.0264
"Bon Air","Alabama","AL",33.2621,-86.3319
"Brantley","Alabama","AL",31.5823,-86.2569
"Brent","Alabama","AL",32.9421,-87.1753
"Brewton","Alabama","AL",31.1113,-87.0737
"Bridgeport","Alabama","AL",34.9496,-85.7243
"Brighton","Alabama","AL",33.4396,-86.9454
"Brilliant","Alabama","AL",34.0256,-87.7691
"Bristow Cove","Alabama","AL",34.1092,-86.2410
"Brookside","Alabama","AL",33.6372,-86.9002
"Brookwood","Alabama","AL",33.2398,-87.3277
"Brundidge","Alabama","AL",31.7182,-85.8178
"Butler","Alabama","AL",32.0965,-88.2108
"Calera","Alabama","AL",33.1254,-86.7449
"Camden","Alabama","AL",32.0007,-87.2967
"Camp Hill","Alabama","AL",32.8002,-85.6536
"Carbon Hill","Alabama","AL",33.8944,-87.5224
"Cardiff","Alabama","AL",33.6473,-86.9308
"Carlisle-Rockledge","Alabama","AL",34.1140,-86.1191
"Carolina","Alabama","AL",31.2337,-86.5227
"Carrollton","Alabama","AL",33.2619,-88.0951
"Castleberry","Alabama","AL",31.3001,-87.0269
"Cedar Bluff","Alabama","AL",34.2217,-85.5882
"Center Point","Alabama","AL",33.6447,-86.6852
"Centre","Alabama","AL",34.1537,-85.6689
"Centreville","Alabama","AL",32.9598,-87.1334
"Chatom","Alabama","AL",31.4691,-88.2460
"Chelsea","Alabama","AL",33.3262,-86.6300
"Cherokee","Alabama","AL",34.7577,-87.9670
"Chickasaw","Alabama","AL",30.7715,-88.0793
"Childersburg","Alabama","AL",33.2962,-86.3456
"Citronelle","Alabama","AL",31.0952,-88.2467
"Clanton","Alabama","AL",32.8444,-86.6233
"Clay","Alabama","AL",33.6951,-86.6090
"Clayhatchee","Alabama","AL",31.2434,-85.7136
"Clayton","Alabama","AL",31.8823,-85.4605
"Cleveland","Alabama","AL",33.9964,-86.5671
"Clio","Alabama","AL",31.7085,-85.6109
"Coaling","Alabama","AL",33.1641,-87.3534
"Coats Bend","Alabama","AL",34.0774,-85.8742
"Coffee Springs","Alabama","AL",31.1664,-85.9103
"Coffeeville","Alabama","AL",31.7666,-88.0861
"Coker","Alabama","AL",33.2446,-87.6800
"Collinsville","Alabama","AL",34.2664,-85.8679
"Colony","Alabama","AL",33.9413,-86.9022
"Columbia","Alabama","AL",31.2968,-85.1103
"Columbiana","Alabama","AL",33.1930,-86.6114
"Coosada","Alabama","AL",32.4984,-86.3279
"Cordova","Alabama","AL",33.7613,-87.1926
"Cottonwood","Alabama","AL",31.0552,-85.3008
"County Line","Alabama","AL",33.8208,-86.7195
"Courtland","Alabama","AL",34.6703,-87.3260
"Cowarts","Alabama","AL",31.2034,-85.3057
"Creola","Alabama","AL",30.8906,-88.0132
"Crossville","Alabama","AL",34.2852,-85.9996
"Cuba","Alabama","AL",32.4410,-88.3755
"Cullman","Alabama","AL",34.1775,-86.8407
"Cusseta","Alabama","AL",32.7876,-85.3057
"Dadeville","Alabama","AL",32.8326,-85.7675
"Daleville","Alabama","AL",31.2915,-85.7117
"Daphne","Alabama","AL",30.6263,-87.8816
"Dauphin Island","Alabama","AL",30.2525,-88.1438
"Daviston","Alabama","AL",33.0557,-85.6371
"Dayton","Alabama","AL",32.3510,-87.6416
"Deatsville","Alabama","AL",32.5864,-86.3917
"Decatur","Alabama","AL",34.5731,-86.9905
"Demopolis","Alabama","AL",32.4980,-87.8298
"Detroit","Alabama","AL",34.0274,-88.1678
"Dodge City","Alabama","AL",34.0445,-86.8853
"Dora","Alabama","AL",33.7288,-87.0842
"Dothan","Alabama","AL",31.2336,-85.4070
"Double Springs","Alabama","AL",34.1502,-87.3910
"Douglas","Alabama","AL",34.1705,-86.3224
"Dozier","Alabama","AL",31.5031,-86.3694
"Dunnavant","Alabama","AL",33.4977,-86.5421
"Dutton","Alabama","AL",34.6062,-85.9119
"East Brewton","Alabama","AL",31.0906,-87.0556
"Eclectic","Alabama","AL",32.6387,-86.0387
"Edwardsville","Alabama","AL",33.8409,-85.4523
"Elba","Alabama","AL",31.4172,-86.0759
"Elberta","Alabama","AL",30.3855,-87.5888
"Eldridge","Alabama","AL",33.9220,-87.6202
"Elkmont","Alabama","AL",34.9289,-86.9765
"Elmore","Alabama","AL",32.5552,-86.3425
"Emelle","Alabama","AL",32.7287,-88.3165
"Emerald Mountain","Alabama","AL",32.4396,-86.0857
"Enterprise","Alabama","AL",31.3275,-85.8463
"Epes","Alabama","AL",32.6906,-88.1405
"Ethelsville","Alabama","AL",33.4141,-88.2161
"Eufaula","Alabama","AL",31.9102,-85.1505
"Eutaw","Alabama","AL",32.8436,-87.8986
"Eva","Alabama","AL",34.3272,-86.7614
"Evergreen","Alabama","AL",31.4342,-86.9723
"Excel","Alabama","AL",31.4264,-87.3433
"Fairfield","Alabama","AL",33.4747,-86.9194
"Fairhope","Alabama","AL",30.5209,-87.8813
"Fairview","Alabama","AL",34.2501,-86.6846
"Falkville","Alabama","AL",34.3793,-86.9086
"Faunsdale","Alabama","AL",32.4576,-87.5938
"Fayette","Alabama","AL",33.6943,-87.8307
"Five Points","Alabama","AL",33.0173,-85.3516
"Flomaton","Alabama","AL",31.0127,-87.2541
"Florala","Alabama","AL",31.0176,-86.3138
"Florence","Alabama","AL",34.8303,-87.6655
"Foley","Alabama","AL",30.3983,-87.6650
"Forkland","Alabama","AL",32.6489,-87.8671
"Fort Deposit","Alabama","AL",31.9863,-86.5664
"Fort Payne","Alabama","AL",34.4559,-85.6965
"Fort Rucker","Alabama","AL",31.3428,-85.7154
"Franklin","Alabama","AL",32.4513,-85.7864
"Frisco City","Alabama","AL",31.4353,-87.4037
"Fruithurst","Alabama","AL",33.7295,-85.4313
"Fulton","Alabama","AL",31.7916,-87.7396
"Fultondale","Alabama","AL",33.6174,-86.8014
"Fyffe","Alabama","AL",34.4490,-85.9052
"Gadsden","Alabama","AL",34.0086,-86.0157
"Gainesville","Alabama","AL",32.8149,-88.1608
"Gantt","Alabama","AL",31.4092,-86.4842
"Garden City","Alabama","AL",34.0150,-86.7493
"Gardendale","Alabama","AL",33.6677,-86.8069
"Gaylesville","Alabama","AL",34.2665,-85.5603
"Geiger","Alabama","AL",32.8696,-88.3133
"Geneva","Alabama","AL",31.0437,-85.8763
"Georgiana","Alabama","AL",31.6391,-86.7468
"Geraldine","Alabama","AL",34.3579,-86.0037
"Gilbertown","Alabama","AL",31.8663,-88.3075
"Glen Allen","Alabama","AL",33.8922,-87.7329
"Glencoe","Alabama","AL",33.9447,-85.9322
"Glenwood","Alabama","AL",31.6675,-86.1730
"Goldville","Alabama","AL",33.0842,-85.7831
"Good Hope","Alabama","AL",34.1102,-86.8662
"Goodwater","Alabama","AL",33.0608,-86.0516
"Gordo","Alabama","AL",33.3221,-87.9040
"Gordon","Alabama","AL",31.1436,-85.0925
"Gordonville","Alabama","AL",32.1489,-86.6995
"Goshen","Alabama","AL",31.7182,-86.1242
"Grant","Alabama","AL",34.5190,-86.2492
"Graysville","Alabama","AL",33.6567,-86.9665
"Greensboro","Alabama","AL",32.7014,-87.5950
"Greenville","Alabama","AL",31.8437,-86.6380
"Grimes","Alabama","AL",31.2999,-85.4503
"Grove Hill","Alabama","AL",31.7006,-87.7748
"Gu-Win","Alabama","AL",33.9443,-87.8705
"Guin","Alabama","AL",33.9832,-87.9023
"Gulf Shores","Alabama","AL",30.2764,-87.7017
"Guntersville","Alabama","AL",34.3671,-86.2637
"Gurley","Alabama","AL",34.7072,-86.3768
"Hackleburg","Alabama","AL",34.2693,-87.8303
"Haleburg","Alabama","AL",31.4099,-85.1381
"Haleyville","Alabama","AL",34.2331,-87.6175
"Hamilton","Alabama","AL",34.1346,-87.9755
"Hammondville","Alabama","AL",34.5688,-85.6394
"Hanceville","Alabama","AL",34.0632,-86.7645
"Harpersville","Alabama","AL",33.3184,-86.4286
"Hartford","Alabama","AL",31.1055,-85.6916
"Hartselle","Alabama","AL",34.4391,-86.9396
"Hayden","Alabama","AL",33.8818,-86.7842
"Hayneville","Alabama","AL",32.1822,-86.5787
"Headland","Alabama","AL",31.3501,-85.3523
"Heath","Alabama","AL",31.3579,-86.4673
"Heflin","Alabama","AL",33.6470,-85.5698
"Helena","Alabama","AL",33.2837,-86.8791
"Henagar","Alabama","AL",34.6306,-85.7413
"Highland Lake","Alabama","AL",33.8876,-86.4244
"Highland Lakes","Alabama","AL",33.3973,-86.6495
"Hillsboro","Alabama","AL",34.6407,-87.1838
"Hobson City","Alabama","AL",33.6148,-85.8561
"Hodges","Alabama","AL",34.3340,-87.9299
"Hokes Bluff","Alabama","AL",33.9902,-85.8639
"Holly Pond","Alabama","AL",34.1696,-86.6125
"Hollywood","Alabama","AL",34.7195,-85.9641
"Homewood","Alabama","AL",33.4619,-86.8090
"Hoover","Alabama","AL",33.3763,-86.8068
"Horn Hill","Alabama","AL",31.2382,-86.3211
"Hueytown","Alabama","AL",33.4239,-87.0220
"Huntsville","Alabama","AL",34.6981,-86.6412
"Hurtsboro","Alabama","AL",32.2401,-85.4147
"Hytop","Alabama","AL",34.8965,-86.0880
"Ider","Alabama","AL",34.7026,-85.6690
"Indian Springs Village","Alabama","AL",33.3590,-86.7492
"Irondale","Alabama","AL",33.5439,-86.6606
"Jackson","Alabama","AL",31.5318,-87.8915
"Jacksons' Gap","Alabama","AL",32.8831,-85.8151
"Jacksonville","Alabama","AL",33.8088,-85.7545
"Jasper","Alabama","AL",33.8508,-87.2710
"Jemison","Alabama","AL",32.9696,-86.7339
"Kansas","Alabama","AL",33.9029,-87.5568
"Kellyton","Alabama","AL",32.9791,-86.0358
"Kennedy","Alabama","AL",33.5810,-87.9859
"Killen","Alabama","AL",34.8607,-87.5268
"Kimberly","Alabama","AL",33.7758,-86.7964
"Kinsey","Alabama","AL",31.2926,-85.3353
"Kinston","Alabama","AL",31.2200,-86.1705
"La Fayette","Alabama","AL",32.8997,-85.4007
"Lake View","Alabama","AL",33.2802,-87.1259
"Lanett","Alabama","AL",32.8577,-85.2078
"Langston","Alabama","AL",34.5374,-86.0899
"Leeds","Alabama","AL",33.5436,-86.5639
"Leesburg","Alabama","AL",34.1839,-85.7750
"Leighton","Alabama","AL",34.6941,-87.5282
"Lester","Alabama","AL",34.9871,-87.1513
"Level Plains","Alabama","AL",31.3071,-85.7687
"Lexington","Alabama","AL",34.9652,-87.3735
"Libertyville","Alabama","AL",31.2428,-86.4600
"Lincoln","Alabama","AL",33.5935,-86.1365
"Linden","Alabama","AL",32.3001,-87.7926
"Lineville","Alabama","AL",33.3129,-85.7508
"Lipscomb","Alabama","AL",33.4260,-86.9261
"Lisman","Alabama","AL",32.1792,-88.3002
"Littleville","Alabama","AL",34.5950,-87.6719
"Livingston","Alabama","AL",32.5982,-88.1891
"Loachapoka","Alabama","AL",32.6049,-85.5948
"Lockhart","Alabama","AL",31.0128,-86.3505
"Locust Fork","Alabama","AL",33.8957,-86.6302
"Lookout Mountain","Alabama","AL",34.1091,-85.9585
"Louisville","Alabama","AL",31.7810,-85.5583
"Lowndesboro","Alabama","AL",32.2764,-86.6108
"Loxley","Alabama","AL",30.6812,-87.7416
"Luverne","Alabama","AL",31.7186,-86.2687
"Lynn","Alabama","AL",34.0548,-87.5555
"Madison","Alabama","AL",34.7114,-86.7626
"Madrid","Alabama","AL",31.0356,-85.3992
"Magnolia Springs","Alabama","AL",30.4003,-87.7749
"Malvern","Alabama","AL",31.1428,-85.5210
"Maplesville","Alabama","AL",32.7867,-86.8783
"Margaret","Alabama","AL",33.6734,-86.4680
"Marion","Alabama","AL",32.6318,-87.3172
"Maytown","Alabama","AL",33.5499,-87.0001
"McIntosh","Alabama","AL",31.2649,-88.0284
"McKenzie","Alabama","AL",31.5429,-86.7246
"McMullen","Alabama","AL",33.1481,-88.1757
"Memphis","Alabama","AL",33.1369,-88.3008
"Mentone","Alabama","AL",34.5655,-85.5846
"Midfield","Alabama","AL",33.4553,-86.9224
"Midland City","Alabama","AL",31.3157,-85.4937
"Midway","Alabama","AL",32.0764,-85.5244
"Millbrook","Alabama","AL",32.5027,-86.3737
"Millport","Alabama","AL",33.5586,-88.0817
"Millry","Alabama","AL",31.6256,-88.3190
"Mobile","Alabama","AL",30.6782,-88.1162
"Monroeville","Alabama","AL",31.5162,-87.3279
"Montevallo","Alabama","AL",33.1246,-86.8477
"Montgomery","Alabama","AL",32.3482,-86.2668
"Moody","Alabama","AL",33.5986,-86.4963
"Mooresville","Alabama","AL",34.6257,-86.8802
"Morris","Alabama","AL",33.7464,-86.8042
"Morrison Crossroads","Alabama","AL",33.4198,-85.4903
"Mosses","Alabama","AL",32.1802,-86.6888
"Moulton","Alabama","AL",34.4844,-87.2833
"Moundville","Alabama","AL",32.9968,-87.6272
"Mount Vernon","Alabama","AL",31.0889,-88.0137
"Mountain Brook","Alabama","AL",33.4871,-86.7400
"Mulga","Alabama","AL",33.5521,-86.9730
"Munford","Alabama","AL",33.5258,-85.9555
"Muscle Shoals","Alabama","AL",34.7432,-87.6343
"Myrtlewood","Alabama","AL",32.2521,-87.9492
"Napier Field","Alabama","AL",31.3147,-85.4550
"Natural Bridge","Alabama","AL",34.0904,-87.6014
"Nauvoo","Alabama","AL",33.9874,-87.4875
"Nectar","Alabama","AL",33.9686,-86.6346
"Needham","Alabama","AL",31.9870,-88.3366
"New Brockton","Alabama","AL",31.3785,-85.9228
"New Hope","Alabama","AL",34.5370,-86.4128
"New Site","Alabama","AL",33.0282,-85.7801
"New Union","Alabama","AL",34.1422,-86.2218
"Newbern","Alabama","AL",32.5920,-87.5331
"Newton","Alabama","AL",31.3423,-85.5893
"Newville","Alabama","AL",31.4206,-85.3367
"North Courtland","Alabama","AL",34.6788,-87.3083
"North Johns","Alabama","AL",33.3677,-87.1008
"Northport","Alabama","AL",33.2586,-87.5993
"Notasulga","Alabama","AL",32.5573,-85.6692
"Oak Grove","Alabama","AL",33.1927,-86.3040
"Oak Hill","Alabama","AL",31.9216,-87.0852
"Oakman","Alabama","AL",33.7141,-87.3890
"Odenville","Alabama","AL",33.6978,-86.4228
"Ohatchee","Alabama","AL",33.7877,-86.0281
"Oneonta","Alabama","AL",33.9394,-86.4932
"Onycha","Alabama","AL",31.2246,-86.2785
"Opelika","Alabama","AL",32.6612,-85.3769
"Opp","Alabama","AL",31.2848,-86.2570
"Orange Beach","Alabama","AL",30.2942,-87.5849
"Orrville","Alabama","AL",32.3068,-87.2454
"Owens Cross Roads","Alabama","AL",34.5845,-86.4574
"Oxford","Alabama","AL",33.5967,-85.8687
"Ozark","Alabama","AL",31.4508,-85.6473
"Paint Rock","Alabama","AL",34.6601,-86.3310
"Parrish","Alabama","AL",33.7323,-87.2802
"Pelham","Alabama","AL",33.3114,-86.7573
"Pell City","Alabama","AL",33.5610,-86.2669
"Pennington","Alabama","AL",32.2010,-88.0378
"Perdido Beach","Alabama","AL",30.3554,-87.5036
"Petrey","Alabama","AL",31.8495,-86.2057
"Phenix City","Alabama","AL",32.4585,-85.0253
"Phil Campbell","Alabama","AL",34.3519,-87.7072
"Pickensville","Alabama","AL",33.2336,-88.2744
"Piedmont","Alabama","AL",33.9269,-85.6149
"Pike Road","Alabama","AL",32.2939,-86.0900
"Pinckard","Alabama","AL",31.3173,-85.5430
"Pine Apple","Alabama","AL",31.8722,-86.9891
"Pine Hill","Alabama","AL",31.9859,-87.5872
"Pine Ridge","Alabama","AL",34.4487,-85.7806
"Pinson","Alabama","AL",33.7055,-86.6678
"Pisgah","Alabama","AL",34.6844,-85.8460
"Pleasant Grove","Alabama","AL",33.4940,-86.9782
"Pleasant Groves","Alabama","AL",34.7350,-86.2054
"Pollard","Alabama","AL",31.0235,-87.1736
"Powell","Alabama","AL",34.5326,-85.8975
"Prattville","Alabama","AL",32.4597,-86.4573
"Priceville","Alabama","AL",34.5246,-86.8856
"Prichard","Alabama","AL",30.7735,-88.1301
"Providence","Alabama","AL",32.3424,-87.7761
"Ragland","Alabama","AL",33.7469,-86.1384
"Rainbow City","Alabama","AL",33.9336,-86.0922
"Rainsville","Alabama","AL",34.4938,-85.8436
"Ranburne","Alabama","AL",33.5259,-85.3390
"Red Bay","Alabama","AL",34.4357,-88.1361
"Red Level","Alabama","AL",31.4055,-86.6084
"Redland","Alabama","AL",32.4754,-86.1375
"Redstone Arsenal","Alabama","AL",34.6645,-86.6530
"Reece City","Alabama","AL",34.0772,-86.0345
"Reform","Alabama","AL",33.3788,-88.0173
"Rehobeth","Alabama","AL",31.1242,-85.4383
"Repton","Alabama","AL",31.4096,-87.2394
"Ridgeville","Alabama","AL",34.0569,-86.1029
"River Falls","Alabama","AL",31.3525,-86.5412
"Riverside","Alabama","AL",33.6171,-86.2042
"Riverview","Alabama","AL",31.0587,-87.0709
"Roanoke","Alabama","AL",33.1453,-85.3694
"Robertsdale","Alabama","AL",30.5535,-87.7023
"Rockford","Alabama","AL",32.8895,-86.2150
"Rogersville","Alabama","AL",34.8251,-87.2821
"Rosa","Alabama","AL",33.9899,-86.5045
"Russellville","Alabama","AL",34.5055,-87.7283
"Rutledge","Alabama","AL",31.7241,-86.3020
"Samson","Alabama","AL",31.1124,-86.0462
"Sand Rock","Alabama","AL",34.2312,-85.7704
"Sanford","Alabama","AL",31.3007,-86.3976
"Saraland","Alabama","AL",30.8479,-88.1004
"Sardis City","Alabama","AL",34.1749,-86.1125
"Satsuma","Alabama","AL",30.8578,-88.0631
"Scottsboro","Alabama","AL",34.6438,-86.0491
"Section","Alabama","AL",34.5816,-85.9849
"Selma","Alabama","AL",32.4166,-87.0336
"Selmont-West Selmont","Alabama","AL",32.3784,-87.0074
"Semmes","Alabama","AL",30.7899,-88.2389
"Sheffield","Alabama","AL",34.7570,-87.6977
"Shiloh","Alabama","AL",34.4604,-85.8767
"Shoal Creek","Alabama","AL",33.4328,-86.6071
"Shorter","Alabama","AL",32.4077,-85.9413
"Silas","Alabama","AL",31.7678,-88.3258
"Silverhill","Alabama","AL",30.5455,-87.7506
"Sipsey","Alabama","AL",33.8225,-87.0835
"Skyline","Alabama","AL",34.7986,-86.1228
"Slocomb","Alabama","AL",31.1103,-85.5954
"Smiths Station","Alabama","AL",32.5280,-85.0943
"Snead","Alabama","AL",34.1162,-86.3902
"Somerville","Alabama","AL",34.4679,-86.7909
"South Vinemont","Alabama","AL",34.2349,-86.8642
"Southside","Alabama","AL",33.9007,-86.0238
"Spanish Fort","Alabama","AL",30.7254,-87.8597
"Springville","Alabama","AL",33.7643,-86.4742
"St. Florian","Alabama","AL",34.8739,-87.6241
"Steele","Alabama","AL",33.9370,-86.2004
"Stevenson","Alabama","AL",34.8487,-85.8437
"Sulligent","Alabama","AL",33.8912,-88.1266
"Sumiton","Alabama","AL",33.7502,-87.0483
"Summerdale","Alabama","AL",30.4783,-87.6904
"Susan Moore","Alabama","AL",34.0804,-86.4228
"Sweet Water","Alabama","AL",32.1046,-87.8619
"Sylacauga","Alabama","AL",33.1780,-86.2605
"Sylvan Springs","Alabama","AL",33.5302,-87.0312
"Sylvania","Alabama","AL",34.5616,-85.8056
"Talladega","Alabama","AL",33.4333,-86.0986
"Talladega Springs","Alabama","AL",33.1191,-86.4421
"Tallassee","Alabama","AL",32.5315,-85.8903
"Tarrant","Alabama","AL",33.5945,-86.7685
"Taylor","Alabama","AL",31.1658,-85.4697
"Thomaston","Alabama","AL",32.2683,-87.6237
"Thomasville","Alabama","AL",31.9110,-87.7419
"Thorsby","Alabama","AL",32.9169,-86.7203
"Tidmore Bend","Alabama","AL",34.0324,-85.9253
"Town Creek","Alabama","AL",34.6718,-87.4063
"Toxey","Alabama","AL",31.9109,-88.3092
"Trafford","Alabama","AL",33.8187,-86.7465
"Triana","Alabama","AL",34.5888,-86.7489
"Trinity","Alabama","AL",34.6011,-87.0816
"Troy","Alabama","AL",31.8021,-85.9664
"Trussville","Alabama","AL",33.6405,-86.5815
"Tuscaloosa","Alabama","AL",33.2348,-87.5268
"Tuscumbia","Alabama","AL",34.7204,-87.7035
"Tuskegee","Alabama","AL",32.4409,-85.7131
"Twin","Alabama","AL",33.9978,-87.8497
"Underwood-Petersville","Alabama","AL",34.8770,-87.6975
"Union","Alabama","AL",32.9938,-87.9071
"Union Grove","Alabama","AL",34.4025,-86.4483
"Union Springs","Alabama","AL",32.1395,-85.7141
"Uniontown","Alabama","AL",32.4490,-87.4958
"Valley","Alabama","AL",32.8088,-85.1810
"Valley Grande","Alabama","AL",32.4862,-87.0305
"Valley Head","Alabama","AL",34.5558,-85.6224
"Vance","Alabama","AL",33.1746,-87.2314
"Vernon","Alabama","AL",33.7588,-88.1143
"Vestavia Hills","Alabama","AL",33.4518,-86.7437
"Vina","Alabama","AL",34.3757,-88.0602
"Vincent","Alabama","AL",33.3849,-86.4087
"Vredenburgh","Alabama","AL",31.8237,-87.3178
"Wadley","Alabama","AL",33.1239,-85.5683
"Waldo","Alabama","AL",33.3892,-86.0360
"Walnut Grove","Alabama","AL",34.0641,-86.2863
"Warrior","Alabama","AL",33.8149,-86.8157
"Waterloo","Alabama","AL",34.9173,-88.0654
"Waverly","Alabama","AL",32.7333,-85.5764
"Weaver","Alabama","AL",33.7601,-85.8117
"Webb","Alabama","AL",31.2572,-85.2896
"Wedowee","Alabama","AL",33.3078,-85.4864
"West Blocton","Alabama","AL",33.1186,-87.1253
"West End-Cobb Town","Alabama","AL",33.6526,-85.8741
"West Jefferson","Alabama","AL",33.6526,-87.0562
"West Point","Alabama","AL",34.2394,-86.9630
"Westover","Alabama","AL",33.3684,-86.5346
"Wetumpka","Alabama","AL",32.5406,-86.2053
"White Hall","Alabama","AL",32.2993,-86.7148
"Wilsonville","Alabama","AL",33.2346,-86.4884
"Wilton","Alabama","AL",33.0813,-86.8799
"Winfield","Alabama","AL",33.9334,-87.7961
"Woodland","Alabama","AL",33.3756,-85.3974
"Woodstock","Alabama","AL",33.2193,-87.1490
"Woodville","Alabama","AL",34.6256,-86.2792
"Yellow Bluff","Alabama","AL",31.9623,-87.4773
"York","Alabama","AL",32.4998,-88.2938
"Adak","Alaska","AK",51.8815,-176.6295
"Akhiok","Alaska","AK",56.9450,-154.2150
"Akiak","Alaska","AK",60.9061,-161.2122
"Akutan","Alaska","AK",54.1594,-165.7328
"Alakanuk","Alaska","AK",62.6902,-164.6305
"Alcan Border","Alaska","AK",62.6727,-141.1321
"Aleknagik","Alaska","AK",59.2946,-158.6896
"Allakaket","Alaska","AK",66.5506,-152.6270
"Ambler","Alaska","AK",67.0897,-157.8725
"Anaktuvuk Pass","Alaska","AK",68.1500,-151.7162
"Anchorage","Alaska","AK",61.1508,-149.1091
"Anderson","Alaska","AK",64.3074,-149.1562
"Angoon","Alaska","AK",57.4550,-134.4978
"Aniak","Alaska","AK",61.5817,-159.5451
"Anvik","Alaska","AK",62.6541,-160.2140
"Atka","Alaska","AK",52.2301,-174.2133
"Atqasuk","Alaska","AK",70.4810,-157.3835
"Attu Station","Alaska","AK",52.8955,173.1230
"Bethel","Alaska","AK",60.7928,-161.7917
"Bettles","Alaska","AK",66.9088,-151.5362
"Brevig Mission","Alaska","AK",65.3413,-166.4953
"Buckland","Alaska","AK",65.9784,-161.1341
"Buffalo Soapstone","Alaska","AK",61.7071,-149.1093
"Chefornak","Alaska","AK",60.1550,-164.2550
"Chena Ridge","Alaska","AK",64.7941,-148.0357
"Chevak","Alaska","AK",61.5295,-165.5941
"Chignik","Alaska","AK",56.3003,-158.4132
"Chuathbaluk","Alaska","AK",61.5746,-159.2489
"Clark's Point","Alaska","AK",58.8329,-158.5276
"Coffman Cove","Alaska","AK",56.0057,-132.8395
"Cold Bay","Alaska","AK",55.2122,-162.7475
"Cordova","Alaska","AK",60.5347,-145.6087
"Craig","Alaska","AK",55.4918,-133.1165
"Deering","Alaska","AK",66.0722,-162.7435
"Delta Junction","Alaska","AK",64.0603,-145.7058
"Deltana","Alaska","AK",63.8723,-145.2158
"Dillingham","Alaska","AK",59.0550,-158.5378
"Diomede","Alaska","AK",65.7536,-168.9219
"Eagle","Alaska","AK",64.7813,-141.1979
"Edna Bay","Alaska","AK",55.9640,-133.6662
"Eek","Alaska","AK",60.2164,-162.0331
"Egegik","Alaska","AK",58.2181,-157.4036
"Eielson AFB","Alaska","AK",64.6741,-147.0605
"Ekwok","Alaska","AK",59.3462,-157.4861
"Elim","Alaska","AK",64.6186,-162.2763
"Emmonak","Alaska","AK",62.7762,-164.5157
"Fairbanks","Alaska","AK",64.8353,-147.6533
"False Pass","Alaska","AK",54.8416,-163.3480
"Farm Loop","Alaska","AK",61.6343,-149.1614
"Farmers Loop","Alaska","AK",64.9061,-147.6957
"Fishhook","Alaska","AK",61.7199,-149.2621
"Fort Greely","Alaska","AK",63.9678,-145.7149
"Fort Yukon","Alaska","AK",66.5806,-145.2415
"Four Mile Road","Alaska","AK",64.6045,-149.1223
"Galena","Alaska","AK",64.7381,-156.8635
"Gambell","Alaska","AK",63.7538,-171.6881
"Glacier View","Alaska","AK",61.8511,-147.7764
"Goldstream","Alaska","AK",64.9339,-148.0083
"Golovin","Alaska","AK",64.5640,-162.9989
"Goodnews Bay","Alaska","AK",59.1271,-161.5753
"Grayling","Alaska","AK",62.8998,-160.1078
"Gustavus","Alaska","AK",58.4275,-135.7492
"Harding-Birch Lakes","Alaska","AK",64.3711,-146.5999
"Holy Cross","Alaska","AK",62.1868,-159.8198
"Homer","Alaska","AK",59.6530,-151.5255
"Hoonah","Alaska","AK",58.1118,-135.4248
"Hooper Bay","Alaska","AK",61.5262,-166.1146
"Houston","Alaska","AK",61.6159,-149.8003
"Hughes","Alaska","AK",66.0452,-154.2376
"Huslia","Alaska","AK",65.7001,-156.3386
"Hydaburg","Alaska","AK",55.2061,-132.8208
"Juneau","Alaska","AK",58.4546,-134.1739
"Kachemak","Alaska","AK",59.6745,-151.4363
"Kake","Alaska","AK",56.9729,-133.9148
"Kaktovik","Alaska","AK",70.1231,-143.6258
"Kaltag","Alaska","AK",64.3223,-158.7436
"Kasaan","Alaska","AK",55.5572,-132.4136
"Kenai","Alaska","AK",60.5619,-151.1985
"Ketchikan","Alaska","AK",55.3556,-131.6698
"Kiana","Alaska","AK",66.9727,-160.4343
"King Cove","Alaska","AK",55.0858,-162.2978
"Kivalina","Alaska","AK",67.7330,-164.5212
"Klawock","Alaska","AK",55.5556,-133.0868
"Knik River","Alaska","AK",61.4606,-148.9155
"Knik-Fairview","Alaska","AK",61.5082,-149.6252
"Kobuk","Alaska","AK",66.9310,-156.8939
"Kodiak","Alaska","AK",57.7934,-152.4059
"Kodiak Station","Alaska","AK",57.7450,-152.5442
"Kotlik","Alaska","AK",63.0305,-163.5530
"Kotzebue","Alaska","AK",66.8766,-162.5231
"Koyuk","Alaska","AK",64.9411,-161.1454
"Koyukuk","Alaska","AK",64.9008,-157.6946
"Kupreanof","Alaska","AK",56.8090,-132.9889
"Kwethluk","Alaska","AK",60.7978,-161.4147
"Larsen Bay","Alaska","AK",57.5404,-154.0056
"Lower Kalskag","Alaska","AK",61.5163,-160.3556
"Manokotak","Alaska","AK",58.8930,-158.9109
"Marshall","Alaska","AK",61.8753,-162.0487
"McGrath","Alaska","AK",62.9424,-155.5630
"Mekoryuk","Alaska","AK",60.3704,-166.2670
"Mertarvik","Alaska","AK",60.8110,-164.4989
"Mountain Village","Alaska","AK",62.0911,-163.7209
"Napakiak","Alaska","AK",60.6923,-161.9822
"Napaskiak","Alaska","AK",60.7018,-161.7616
"Nenana","Alaska","AK",64.5384,-149.0856
"New Stuyahok","Alaska","AK",59.4762,-157.2710
"Newhalen","Alaska","AK",59.7270,-154.8970
"Nightmute","Alaska","AK",60.4874,-164.8195
"Nikolai","Alaska","AK",63.0095,-154.3763
"Nome","Alaska","AK",64.5213,-165.4053
"Nondalton","Alaska","AK",59.9711,-154.8627
"Noorvik","Alaska","AK",66.8292,-161.0377
"North Pole","Alaska","AK",64.7529,-147.3599
"Nuiqsut","Alaska","AK",70.2135,-150.9897
"Nulato","Alaska","AK",64.7052,-158.2382
"Nunam Iqua","Alaska","AK",62.5110,-164.8998
"Nunapitchuk","Alaska","AK",60.8772,-162.4615
"Old Harbor","Alaska","AK",57.2169,-153.3252
"Ouzinkie","Alaska","AK",57.9223,-152.4674
"Palmer","Alaska","AK",61.5971,-149.1148
"Pelican","Alaska","AK",57.9576,-136.2176
"Pilot Point","Alaska","AK",57.5585,-157.6798
"Pilot Station","Alaska","AK",61.9422,-162.8828
"Platinum","Alaska","AK",58.9780,-161.7185
"Point Hope","Alaska","AK",68.3445,-166.6738
"Point Possession","Alaska","AK",60.9228,-150.6891
"Pope-Vannoy Landing","Alaska","AK",59.5649,-154.4654
"Port Alexander","Alaska","AK",56.2346,-134.6532
"Port Heiden","Alaska","AK",56.9426,-158.6047
"Port Lions","Alaska","AK",57.8758,-152.8737
"Quinhagak","Alaska","AK",59.7511,-161.8992
"Ruby","Alaska","AK",64.7233,-155.5005
"Russian Mission","Alaska","AK",61.7825,-161.3567
"Salcha","Alaska","AK",64.5274,-146.9042
"Sand Point","Alaska","AK",55.3227,-160.4834
"Savoonga","Alaska","AK",63.6797,-170.4831
"Saxman","Alaska","AK",55.3232,-131.5892
"Scammon Bay","Alaska","AK",61.8420,-165.5833
"Selawik","Alaska","AK",66.5988,-159.9995
"Seldovia","Alaska","AK",59.4396,-151.7111
"Seward","Alaska","AK",60.1124,-149.3925
"Shageluk","Alaska","AK",62.6684,-159.5630
"Shaktoolik","Alaska","AK",64.3568,-161.1973
"Shishmaref","Alaska","AK",66.2372,-166.1027
"Shungnak","Alaska","AK",66.8805,-157.1499
"Silver Springs","Alaska","AK",62.0193,-145.3584
"Sitka","Alaska","AK",57.2401,-135.3152
"Soldotna","Alaska","AK",60.4862,-151.0672
"South Van Horn","Alaska","AK",64.8091,-147.7854
"St. George","Alaska","AK",56.5791,-169.6114
"St. Mary's","Alaska","AK",62.0718,-163.2805
"St. Michael","Alaska","AK",63.4664,-162.1324
"St. Paul","Alaska","AK",57.1815,-170.2743
"Stebbins","Alaska","AK",63.4705,-162.2599
"Steele Creek","Alaska","AK",64.9295,-147.3955
"Susitna North","Alaska","AK",62.1281,-149.8593
"Sutton-Alpine","Alaska","AK",61.7428,-148.8548
"Tanana","Alaska","AK",65.1746,-152.0686
"Teller","Alaska","AK",65.2531,-166.3420
"Tenakee Springs","Alaska","AK",57.7913,-135.1954
"Thorne Bay","Alaska","AK",55.6652,-132.5337
"Togiak","Alaska","AK",59.0693,-160.4728
"Toksook Bay","Alaska","AK",60.5333,-165.1557
"Unalakleet","Alaska","AK",63.8924,-160.7861
"Unalaska","Alaska","AK",53.8984,-166.5680
"Utqiagvik","Alaska","AK",71.2727,-156.7575
"Valdez","Alaska","AK",61.0963,-146.2596
"Wainwright","Alaska","AK",70.6380,-159.9713
"Wales","Alaska","AK",65.6119,-168.0773
"Wasilla","Alaska","AK",61.5770,-149.4660
"Whale Pass","Alaska","AK",56.1053,-133.1243
"White Mountain","Alaska","AK",64.6812,-163.4228
"Whitestone","Alaska","AK",64.1527,-145.9061
"Whittier","Alaska","AK",60.7852,-148.6455
"Wrangell","Alaska","AK",56.3317,-132.0223
"Alamo Lake","Arizona","AZ",34.2588,-113.5079
"Apache Junction","Arizona","AZ",33.3985,-111.5350
"Avenue B and C","Arizona","AZ",32.7192,-114.6598
"Avondale","Arizona","AZ",33.3873,-112.3235
"Beaver Valley","Arizona","AZ",34.3409,-111.2987
"Benson","Arizona","AZ",31.9157,-110.3257
"Bisbee","Arizona","AZ",31.4126,-109.9178
"Buckeye","Arizona","AZ",33.4314,-112.6429
"Buckshot","Arizona","AZ",32.7404,-114.4829
"Bullhead City","Arizona","AZ",35.1205,-114.5461
"Cactus Flats","Arizona","AZ",32.7642,-109.7206
"Camp Verde","Arizona","AZ",34.5690,-111.8560
"Carefree","Arizona","AZ",33.8234,-111.9161
"Casa Grande","Arizona","AZ",32.9069,-111.7624
"Cave Creek","Arizona","AZ",33.8513,-111.9801
"Centennial Park","Arizona","AZ",36.9538,-112.9813
"Central Heights-Midland City","Arizona","AZ",33.4000,-110.8153
"Chandler","Arizona","AZ",33.2825,-111.8514
"Chino Valley","Arizona","AZ",34.7594,-112.4120
"Clacks Canyon","Arizona","AZ",35.2203,-114.0723
"Clarkdale","Arizona","AZ",34.7501,-112.0555
"Clifton","Arizona","AZ",33.0249,-109.2883
"Colorado City","Arizona","AZ",36.9773,-112.9869
"Coolidge","Arizona","AZ",32.9363,-111.5254
"Cottonwood","Arizona","AZ",34.7195,-112.0016
"Crystal Beach","Arizona","AZ",34.5714,-114.3925
"Deer Creek","Arizona","AZ",34.0644,-111.3505
"Dewey-Humboldt","Arizona","AZ",34.5174,-112.2496
"Doney Park","Arizona","AZ",35.2656,-111.5190
"Donovan Estates","Arizona","AZ",32.7094,-114.6781
"Douglas","Arizona","AZ",31.3602,-109.5394
"Dripping Springs","Arizona","AZ",33.1049,-110.7551
"Drysdale","Arizona","AZ",32.6452,-114.7067
"Duncan","Arizona","AZ",32.7344,-109.0972
"Eagar","Arizona","AZ",34.1056,-109.2961
"East Globe","Arizona","AZ",33.3511,-110.7061
"East Verde Estates","Arizona","AZ",34.2983,-111.3645
"El Capitan","Arizona","AZ",33.2383,-110.7833
"El Mirage","Arizona","AZ",33.5905,-112.3271
"El Prado Estates","Arizona","AZ",32.7062,-114.5215
"Elephant Head","Arizona","AZ",31.7659,-110.9921
"Eloy","Arizona","AZ",32.7470,-111.5992
"Flagstaff","Arizona","AZ",35.1872,-111.6194
"Florence","Arizona","AZ",33.0590,-111.4209
"Fort Mohave","Arizona","AZ",35.0004,-114.5748
"Fort Valley","Arizona","AZ",35.3228,-111.7399
"Fountain Hills","Arizona","AZ",33.6073,-111.7398
"Fredonia","Arizona","AZ",36.9617,-112.5195
"Gila Bend","Arizona","AZ",32.9662,-112.7154
"Gilbert","Arizona","AZ",33.3100,-111.7463
"Glendale","Arizona","AZ",33.5791,-112.2311
"Globe","Arizona","AZ",33.3870,-110.7513
"Golden Shores","Arizona","AZ",34.7819,-114.4777
"Goodyear","Arizona","AZ",33.2614,-112.3622
"Goodyear Village","Arizona","AZ",33.1973,-111.8724
"Grand Canyon Village","Arizona","AZ",36.0474,-112.1623
"Grand Canyon West","Arizona","AZ",35.9998,-113.8103
"Guadalupe","Arizona","AZ",33.3665,-111.9633
"Haigler Creek","Arizona","AZ",34.2163,-110.9719
"Hard Rock","Arizona","AZ",36.0309,-110.5048
"Hayden","Arizona","AZ",32.9995,-110.7814
"Heber-Overgaard","Arizona","AZ",34.4141,-110.5696
"Holbrook","Arizona","AZ",34.9044,-110.1672
"Hondah","Arizona","AZ",34.0860,-109.9149
"Hotevilla-Bacavi","Arizona","AZ",35.9225,-110.6569
"Huachuca City","Arizona","AZ",31.6308,-110.3421
"Hunter Creek","Arizona","AZ",34.3054,-111.0159
"Icehouse Canyon","Arizona","AZ",33.3553,-110.7965
"Jerome","Arizona","AZ",34.7471,-112.1076
"Kearny","Arizona","AZ",33.0564,-110.9074
"Kingman","Arizona","AZ",35.2170,-114.0105
"Lake Havasu City","Arizona","AZ",34.5006,-114.3113
"Lazy Y U","Arizona","AZ",35.1369,-113.9684
"Litchfield Park","Arizona","AZ",33.5024,-112.3588
"Lower Santan Village","Arizona","AZ",33.1427,-111.7853
"Mammoth","Arizona","AZ",32.6853,-110.7292
"Marana","Arizona","AZ",32.4355,-111.1558
"Maricopa","Arizona","AZ",33.0408,-112.0011
"Maricopa Colony","Arizona","AZ",33.3626,-112.2267
"Martinez Lake","Arizona","AZ",32.9843,-114.4722
"Mead Ranch","Arizona","AZ",34.3460,-111.1430
"Mesa","Arizona","AZ",33.4015,-111.7178
"Miami","Arizona","AZ",33.3951,-110.8724
"New Kingman-Butler","Arizona","AZ",35.2645,-114.0091
"Nogales","Arizona","AZ",31.3624,-110.9336
"North Fork","Arizona","AZ",33.9965,-109.9593
"Oljato-Monument Valley","Arizona","AZ",36.9867,-110.1910
"Oro Valley","Arizona","AZ",32.4208,-110.9767
"Padre Ranchitos","Arizona","AZ",32.6497,-114.6416
"Page","Arizona","AZ",36.9426,-111.5071
"Paradise Valley","Arizona","AZ",33.5434,-111.9595
"Parker","Arizona","AZ",34.0286,-114.2224
"Patagonia","Arizona","AZ",31.5436,-110.7478
"Payson","Arizona","AZ",34.2433,-111.3195
"Peoria","Arizona","AZ",33.7843,-112.2989
"Phoenix","Arizona","AZ",33.5722,-112.0892
"Pima","Arizona","AZ",32.8886,-109.8437
"Pine Lake","Arizona","AZ",35.0887,-113.8740
"Pinetop Country Club","Arizona","AZ",34.1164,-109.8909
"Pinetop-Lakeside","Arizona","AZ",34.1486,-109.9657
"Pinion Pines","Arizona","AZ",35.1466,-113.9058
"Prescott","Arizona","AZ",34.5849,-112.4473
"Prescott Valley","Arizona","AZ",34.5980,-112.3185
"Quartzsite","Arizona","AZ",33.6675,-114.2171
"Queen Creek","Arizona","AZ",33.2454,-111.6173
"Rainbow City","Arizona","AZ",33.8731,-109.9763
"Rancho Mesa Verde","Arizona","AZ",32.5944,-114.6551
"Rincon Valley","Arizona","AZ",32.1101,-110.6889
"Rock House","Arizona","AZ",33.6318,-110.9456
"Round Valley","Arizona","AZ",34.1877,-111.3017
"Sacate Village","Arizona","AZ",33.1416,-111.9811
"Sacaton Flats Village","Arizona","AZ",33.0559,-111.6590
"Saddlebrooke","Arizona","AZ",32.5576,-110.8740
"Safford","Arizona","AZ",32.8335,-109.6964
"Sahuarita","Arizona","AZ",31.9323,-110.9654
"San Luis","Arizona","AZ",32.4911,-114.7089
"Scenic","Arizona","AZ",36.7930,-114.0151
"Scottsdale","Arizona","AZ",33.6872,-111.8651
"Sedona","Arizona","AZ",34.8581,-111.7941
"Seven Mile","Arizona","AZ",33.7883,-109.9576
"Show Low","Arizona","AZ",34.2671,-110.0384
"Sierra Vista","Arizona","AZ",31.5630,-110.3153
"Sierra Vista Southeast","Arizona","AZ",31.4525,-110.2160
"Six Shooter Canyon","Arizona","AZ",33.3569,-110.7719
"Snowflake","Arizona","AZ",34.5225,-110.0913
"So-Hi","Arizona","AZ",35.2527,-114.1415
"Somerton","Arizona","AZ",32.6007,-114.6994
"South Tucson","Arizona","AZ",32.1955,-110.9692
"Springerville","Arizona","AZ",34.1560,-109.2988
"St. Johns","Arizona","AZ",34.5018,-109.3784
"Star Valley","Arizona","AZ",34.2611,-111.2197
"Stotonic Village","Arizona","AZ",33.1528,-111.8167
"Sunwest","Arizona","AZ",33.6510,-113.4091
"Superior","Arizona","AZ",33.2851,-111.1109
"Surprise","Arizona","AZ",33.6815,-112.4515
"Sweet Water Village","Arizona","AZ",33.1274,-111.8424
"Taylor","Arizona","AZ",34.4393,-110.1018
"Tempe","Arizona","AZ",33.3881,-111.9319
"Thatcher","Arizona","AZ",32.8323,-109.7595
"Tolleson","Arizona","AZ",33.4484,-112.2560
"Tombstone","Arizona","AZ",31.7234,-110.0798
"Tucson","Arizona","AZ",32.1541,-110.8787
"Tumacacori-Carmen","Arizona","AZ",31.5771,-111.0468
"Turkey Creek","Arizona","AZ",33.8011,-109.9461
"Tusayan","Arizona","AZ",35.9549,-112.1202
"Upper Santan Village","Arizona","AZ",33.1152,-111.7419
"Valencia West","Arizona","AZ",32.1355,-111.1123
"Valle Vista","Arizona","AZ",35.4109,-113.8627
"Village of Oak Creek","Arizona","AZ",34.7813,-111.7606
"Wagon Wheel","Arizona","AZ",34.1976,-110.0272
"Wall Lane","Arizona","AZ",32.6573,-114.7105
"Walnut Creek","Arizona","AZ",35.1312,-114.1267
"Wellton","Arizona","AZ",32.6401,-114.2152
"Wellton Hills","Arizona","AZ",32.6231,-114.1453
"Wet Camp Village","Arizona","AZ",33.1413,-111.9004
"Wheatfields","Arizona","AZ",33.4805,-110.8366
"Whitecone","Arizona","AZ",35.6037,-110.0791
"Wickenburg","Arizona","AZ",33.9837,-112.7669
"Willcox","Arizona","AZ",32.2515,-109.8359
"Williams","Arizona","AZ",35.2476,-112.1834
"Winkelman","Arizona","AZ",32.9853,-110.7651
"Winslow","Arizona","AZ",35.0243,-110.7095
"Youngtown","Arizona","AZ",33.5846,-112.3048
"Yuma","Arizona","AZ",32.5995,-114.5491
"Adona","Arkansas","AR",35.0399,-92.8992
"Alexander","Arkansas","AR",34.6185,-92.4512
"Alicia","Arkansas","AR",35.8929,-91.0835
"Allport","Arkansas","AR",34.5399,-91.7839
"Alma","Arkansas","AR",35.4919,-94.2165
"Almyra","Arkansas","AR",34.4057,-91.4108
"Alpena","Arkansas","AR",36.2897,-93.3037
"Altheimer","Arkansas","AR",34.3241,-91.8481
"Altus","Arkansas","AR",35.4468,-93.7644
"Amagon","Arkansas","AR",35.5631,-91.1093
"Amity","Arkansas","AR",34.2662,-93.4634
"Anthonyville","Arkansas","AR",35.0398,-90.3403
"Antoine","Arkansas","AR",34.0346,-93.4226
"Arkadelphia","Arkansas","AR",34.1253,-93.0729
"Arkansas City","Arkansas","AR",33.6089,-91.2048
"Ash Flat","Arkansas","AR",36.2365,-91.6067
"Ashdown","Arkansas","AR",33.6746,-94.1265
"Atkins","Arkansas","AR",35.2414,-92.9465
"Aubrey","Arkansas","AR",34.7197,-90.8975
"Augusta","Arkansas","AR",35.2865,-91.3614
"Austin","Arkansas","AR",35.0058,-91.9895
"Avoca","Arkansas","AR",36.3980,-94.0710
"Bald Knob","Arkansas","AR",35.3123,-91.5709
"Banks","Arkansas","AR",33.5758,-92.2671
"Barling","Arkansas","AR",35.3284,-94.2791
"Bassett","Arkansas","AR",35.5356,-90.1294
"Batesville","Arkansas","AR",35.7687,-91.6227
"Bauxite","Arkansas","AR",34.5602,-92.4989
"Bay","Arkansas","AR",35.7456,-90.5546
"Bearden","Arkansas","AR",33.7276,-92.6187
"Beaver","Arkansas","AR",36.4752,-93.7728
"Beebe","Arkansas","AR",35.0713,-91.8998
"Beedeville","Arkansas","AR",35.4292,-91.1107
"Bella Vista","Arkansas","AR",36.4667,-94.2707
"Bellefonte","Arkansas","AR",36.1998,-93.0470
"Belleville","Arkansas","AR",35.0915,-93.4458
"Ben Lomond","Arkansas","AR",33.8335,-94.1177
"Benton","Arkansas","AR",34.5776,-92.5713
"Bentonville","Arkansas","AR",36.3547,-94.2305
"Bergman","Arkansas","AR",36.3128,-93.0115
"Berryville","Arkansas","AR",36.3710,-93.5704
"Big Flat","Arkansas","AR",36.0056,-92.4066
"Bigelow","Arkansas","AR",34.9975,-92.6315
"Biggers","Arkansas","AR",36.3319,-90.8052
"Birdsong","Arkansas","AR",35.4610,-90.2598
"Black Oak","Arkansas","AR",35.8365,-90.3676
"Black Rock","Arkansas","AR",36.1070,-91.1074
"Black Springs","Arkansas","AR",34.4607,-93.7123
"Blevins","Arkansas","AR",33.8716,-93.5778
"Blue Eye","Arkansas","AR",36.4966,-93.3977
"Blue Mountain","Arkansas","AR",35.1311,-93.7162
"Bluff City","Arkansas","AR",33.7224,-93.1316
"Blytheville","Arkansas","AR",35.9321,-89.9051
"Bodcaw","Arkansas","AR",33.5607,-93.4013
"Bonanza","Arkansas","AR",35.2335,-94.4167
"Bono","Arkansas","AR",35.9111,-90.8009
"Booneville","Arkansas","AR",35.1392,-93.9178
"Bradford","Arkansas","AR",35.4220,-91.4552
"Bradley","Arkansas","AR",33.0993,-93.6569
"Branch","Arkansas","AR",35.3075,-93.9557
"Briarcliff","Arkansas","AR",36.2720,-92.2821
"Brinkley","Arkansas","AR",34.8900,-91.1902
"Brookland","Arkansas","AR",35.8991,-90.5767
"Bryant","Arkansas","AR",34.6152,-92.4914
"Buckner","Arkansas","AR",33.3572,-93.4358
"Bull Shoals","Arkansas","AR",36.3748,-92.5902
"Burdette","Arkansas","AR",35.8152,-89.9467
"Cabot","Arkansas","AR",34.9766,-92.0274
"Caddo Valley","Arkansas","AR",34.1898,-93.0679
"Caldwell","Arkansas","AR",35.0788,-90.8135
"Cale","Arkansas","AR",33.6278,-93.2350
"Calico Rock","Arkansas","AR",36.1401,-92.1341
"Calion","Arkansas","AR",33.3287,-92.5402
"Camden","Arkansas","AR",33.5672,-92.8467
"Cammack Village","Arkansas","AR",34.7808,-92.3449
"Campbell Station","Arkansas","AR",35.6678,-91.2538
"Caraway","Arkansas","AR",35.7597,-90.3222
"Carlisle","Arkansas","AR",34.7947,-91.7361
"Carthage","Arkansas","AR",34.0726,-92.5553
"Casa","Arkansas","AR",35.0253,-93.0448
"Cash","Arkansas","AR",35.8013,-90.9315
"Caulksville","Arkansas","AR",35.3017,-93.8680
"Cave City","Arkansas","AR",35.9481,-91.5468
"Cave Springs","Arkansas","AR",36.2701,-94.2227
"Cedarville","Arkansas","AR",35.5830,-94.3615
"Centerton","Arkansas","AR",36.3566,-94.2971
"Central City","Arkansas","AR",35.3300,-94.2347
"Charleston","Arkansas","AR",35.2948,-94.0484
"Cherokee Village","Arkansas","AR",36.2959,-91.5696
"Cherry Valley","Arkansas","AR",35.4028,-90.7536
"Chester","Arkansas","AR",35.6778,-94.1778
"Chidester","Arkansas","AR",33.7020,-93.0238
"Clarendon","Arkansas","AR",34.6936,-91.3062
"Clarkedale","Arkansas","AR",35.2971,-90.2103
"Clarksville","Arkansas","AR",35.4570,-93.4803
"Clinton","Arkansas","AR",35.5798,-92.4543
"Coal Hill","Arkansas","AR",35.4375,-93.6647
"Colt","Arkansas","AR",35.1329,-90.8129
"Concord","Arkansas","AR",35.6623,-91.8507
"Conway","Arkansas","AR",35.0753,-92.4692
"Corinth","Arkansas","AR",35.0693,-93.4235
"Corning","Arkansas","AR",36.4134,-90.5839
"Cotter","Arkansas","AR",36.2819,-92.5212
"Cotton Plant","Arkansas","AR",35.0059,-91.2520
"Cove","Arkansas","AR",34.4366,-94.4161
"Coy","Arkansas","AR",34.5405,-91.8713
"Crawfordsville","Arkansas","AR",35.2267,-90.3241
"Crossett","Arkansas","AR",33.1280,-91.9631
"Cushman","Arkansas","AR",35.8658,-91.7782
"Daisy","Arkansas","AR",34.2349,-93.7405
"Damascus","Arkansas","AR",35.3671,-92.4108
"Danville","Arkansas","AR",35.0529,-93.3902
"Dardanelle","Arkansas","AR",35.2263,-93.1649
"Datto","Arkansas","AR",36.3925,-90.7285
"De Queen","Arkansas","AR",34.0426,-94.3420
"De Valls Bluff","Arkansas","AR",34.7861,-91.4608
"Decatur","Arkansas","AR",36.3402,-94.4578
"Delaplaine","Arkansas","AR",36.2304,-90.7256
"Delight","Arkansas","AR",34.0301,-93.5072
"Dell","Arkansas","AR",35.8572,-90.0341
"Denning","Arkansas","AR",35.4252,-93.7568
"Dermott","Arkansas","AR",33.5271,-91.4323
"Des Arc","Arkansas","AR",34.9776,-91.5067
"DeWitt","Arkansas","AR",34.2874,-91.3383
"Diamond City","Arkansas","AR",36.4574,-92.9129
"Diaz","Arkansas","AR",35.6478,-91.2620
"Dierks","Arkansas","AR",34.1200,-94.0173
"Donaldson","Arkansas","AR",34.2350,-92.9195
"Dover","Arkansas","AR",35.3910,-93.1143
"Dumas","Arkansas","AR",33.8834,-91.4857
"Dyer","Arkansas","AR",35.4944,-94.1388
"Dyess","Arkansas","AR",35.5893,-90.2133
"Earle","Arkansas","AR",35.2734,-90.4642
"East Camden","Arkansas","AR",33.6084,-92.7443
"Edmondson","Arkansas","AR",35.1050,-90.3054
"Egypt","Arkansas","AR",35.8677,-90.9459
"El Dorado","Arkansas","AR",33.2184,-92.6640
"Elaine","Arkansas","AR",34.3087,-90.8533
"Elkins","Arkansas","AR",36.0173,-94.0252
"Elm Springs","Arkansas","AR",36.2068,-94.2382
"Emerson","Arkansas","AR",33.0973,-93.1960
"Emmet","Arkansas","AR",33.7227,-93.4658
"England","Arkansas","AR",34.5454,-91.9675
"Enola","Arkansas","AR",35.1959,-92.2066
"Etowah","Arkansas","AR",35.7225,-90.2321
"Eudora","Arkansas","AR",33.1190,-91.2640
"Eureka Springs","Arkansas","AR",36.4105,-93.7450
"Evening Shade","Arkansas","AR",36.0700,-91.6218
"Everton","Arkansas","AR",36.1542,-92.9096
"Fairfield Bay","Arkansas","AR",35.6050,-92.2659
"Fargo","Arkansas","AR",34.9537,-91.1764
"Farmington","Arkansas","AR",36.0370,-94.2537
"Fayetteville","Arkansas","AR",36.0714,-94.1661
"Felsenthal","Arkansas","AR",33.0588,-92.1533
"Fifty-Six","Arkansas","AR",35.9621,-92.2301
"Fisher","Arkansas","AR",35.4915,-90.9725
"Flippin","Arkansas","AR",36.2773,-92.5935
"Fordyce","Arkansas","AR",33.8182,-92.4174
"Foreman","Arkansas","AR",33.7198,-94.3979
"Forrest City","Arkansas","AR",35.0135,-90.7931
"Fort Smith","Arkansas","AR",35.3495,-94.3695
"Fouke","Arkansas","AR",33.2622,-93.8852
"Fountain Hill","Arkansas","AR",33.3575,-91.8511
"Fountain Lake","Arkansas","AR",34.6099,-92.9197
"Fourche","Arkansas","AR",34.9933,-92.6189
"Franklin","Arkansas","AR",36.1727,-91.7697
"Fredonia","Arkansas","AR",34.8194,-91.4101
"Friendship","Arkansas","AR",34.2243,-93.0037
"Fulton","Arkansas","AR",33.6126,-93.8138
"Garfield","Arkansas","AR",36.4555,-93.9757
"Garland","Arkansas","AR",33.3609,-93.7142
"Garner","Arkansas","AR",35.1421,-91.7805
"Gassville","Arkansas","AR",36.2849,-92.4869
"Gateway","Arkansas","AR",36.4854,-93.9365
"Gentry","Arkansas","AR",36.2571,-94.4908
"Georgetown","Arkansas","AR",35.1267,-91.4539
"Gilbert","Arkansas","AR",35.9905,-92.7166
"Gillett","Arkansas","AR",34.1193,-91.3789
"Gillham","Arkansas","AR",34.1686,-94.3145
"Gilmore","Arkansas","AR",35.4131,-90.2973
"Glenwood","Arkansas","AR",34.3278,-93.5308
"Goshen","Arkansas","AR",36.1044,-94.0033
"Gosnell","Arkansas","AR",35.9644,-89.9721
"Gould","Arkansas","AR",33.9872,-91.5641
"Grady","Arkansas","AR",34.0787,-91.6976
"Grannis","Arkansas","AR",34.2398,-94.3220
"Gravette","Arkansas","AR",36.4291,-94.3712
"Green Forest","Arkansas","AR",36.3347,-93.4310
"Greenbrier","Arkansas","AR",35.2289,-92.3836
"Greenland","Arkansas","AR",35.9963,-94.1900
"Greenway","Arkansas","AR",36.3405,-90.2221
"Greenwood","Arkansas","AR",35.2134,-94.2408
"Greers Ferry","Arkansas","AR",35.5674,-92.1688
"Griffithville","Arkansas","AR",35.1231,-91.6449
"Grubbs","Arkansas","AR",35.6540,-91.0755
"Guion","Arkansas","AR",35.9269,-91.9389
"Gum Springs","Arkansas","AR",34.0639,-93.0957
"Gurdon","Arkansas","AR",33.9154,-93.1545
"Guy","Arkansas","AR",35.3273,-92.3367
"Hackett","Arkansas","AR",35.1877,-94.4106
"Hamburg","Arkansas","AR",33.2248,-91.7972
"Hampton","Arkansas","AR",33.5347,-92.4667
"Hardy","Arkansas","AR",36.3189,-91.4794
"Harrell","Arkansas","AR",33.5099,-92.4001
"Harrisburg","Arkansas","AR",35.5637,-90.7216
"Harrison","Arkansas","AR",36.2438,-93.1198
"Hartford","Arkansas","AR",35.0236,-94.3799
"Hartman","Arkansas","AR",35.4353,-93.6235
"Haskell","Arkansas","AR",34.5095,-92.6406
"Hatfield","Arkansas","AR",34.4861,-94.3792
"Havana","Arkansas","AR",35.1098,-93.5260
"Haynes","Arkansas","AR",34.8909,-90.7926
"Hazen","Arkansas","AR",34.7964,-91.5714
"Heber Springs","Arkansas","AR",35.4995,-92.0292
"Hector","Arkansas","AR",35.4646,-92.9759
"Helena-West Helena","Arkansas","AR",34.5313,-90.6201
"Hermitage","Arkansas","AR",33.4474,-92.1714
"Hickory Ridge","Arkansas","AR",35.4029,-90.9946
"Higden","Arkansas","AR",35.5667,-92.2049
"Higginson","Arkansas","AR",35.1968,-91.7152
"Highfill","Arkansas","AR",36.2767,-94.3237
"Highland","Arkansas","AR",36.2657,-91.5186
"Hindsville","Arkansas","AR",36.1458,-93.8627
"Holland","Arkansas","AR",35.1660,-92.2770
"Holly Grove","Arkansas","AR",34.6003,-91.1962
"Hope","Arkansas","AR",33.6682,-93.5895
"Horatio","Arkansas","AR",33.9410,-94.3554
"Horseshoe Bend","Arkansas","AR",36.2218,-91.7396
"Horseshoe Lake","Arkansas","AR",34.9136,-90.3080
"Hot Springs","Arkansas","AR",34.4892,-93.0501
"Houston","Arkansas","AR",35.0349,-92.6945
"Hoxie","Arkansas","AR",36.0360,-90.9736
"Hughes","Arkansas","AR",34.9483,-90.4707
"Humnoke","Arkansas","AR",34.5422,-91.7596
"Humphrey","Arkansas","AR",34.4225,-91.7025
"Hunter","Arkansas","AR",35.0546,-91.1227
"Huntington","Arkansas","AR",35.0814,-94.2663
"Huntsville","Arkansas","AR",36.0985,-93.7363
"Huttig","Arkansas","AR",33.0418,-92.1818
"Imboden","Arkansas","AR",36.1997,-91.1774
"Jacksonport","Arkansas","AR",35.6422,-91.3080
"Jacksonville","Arkansas","AR",34.8807,-92.1304
"Jasper","Arkansas","AR",36.0124,-93.1874
"Jennette","Arkansas","AR",35.1639,-90.4092
"Jericho","Arkansas","AR",35.2876,-90.2305
"Jerome","Arkansas","AR",33.3988,-91.4697
"Johnson","Arkansas","AR",36.1328,-94.1757
"Joiner","Arkansas","AR",35.5054,-90.1501
"Jonesboro","Arkansas","AR",35.8212,-90.6791
"Judsonia","Arkansas","AR",35.2770,-91.6411
"Junction City","Arkansas","AR",33.0220,-92.7236
"Keiser","Arkansas","AR",35.6740,-90.0958
"Kensett","Arkansas","AR",35.2354,-91.6708
"Keo","Arkansas","AR",34.6090,-92.0102
"Kibler","Arkansas","AR",35.4268,-94.2358
"Kingsland","Arkansas","AR",33.8659,-92.2911
"Knobel","Arkansas","AR",36.3199,-90.6024
"Knoxville","Arkansas","AR",35.3780,-93.3630
"Lafe","Arkansas","AR",36.2092,-90.5043
"LaGrange","Arkansas","AR",34.6555,-90.7349
"Lake City","Arkansas","AR",35.8203,-90.4547
"Lake Village","Arkansas","AR",33.3287,-91.2847
"Lakeview","Arkansas","AR",36.3739,-92.5387
"Lamar","Arkansas","AR",35.4436,-93.3951
"Lavaca","Arkansas","AR",35.3342,-94.1798
"Leachville","Arkansas","AR",35.9039,-90.2625
"Lead Hill","Arkansas","AR",36.4137,-92.9067
"Leola","Arkansas","AR",34.1700,-92.5914
"Lepanto","Arkansas","AR",35.6085,-90.3329
"Leslie","Arkansas","AR",35.8294,-92.5563
"Letona","Arkansas","AR",35.3635,-91.8295
"Lewisville","Arkansas","AR",33.3643,-93.5751
"Lexa","Arkansas","AR",34.5983,-90.7519
"Lincoln","Arkansas","AR",35.9490,-94.4174
"Little Flock","Arkansas","AR",36.3853,-94.1363
"Little Rock","Arkansas","AR",34.7256,-92.3577
"Lockesburg","Arkansas","AR",33.9716,-94.1761
"London","Arkansas","AR",35.3280,-93.2416
"Lonoke","Arkansas","AR",34.7906,-91.9072
"Lonsdale","Arkansas","AR",34.5450,-92.8106
"Louann","Arkansas","AR",33.3915,-92.7923
"Lowell","Arkansas","AR",36.2561,-94.1532
"Luxora","Arkansas","AR",35.7575,-89.9298
"Lynn","Arkansas","AR",36.0042,-91.2521
"Madison","Arkansas","AR",35.0193,-90.7317
"Magazine","Arkansas","AR",35.1534,-93.8078
"Magness","Arkansas","AR",35.7031,-91.4822
"Magnolia","Arkansas","AR",33.2775,-93.2261
"Malvern","Arkansas","AR",34.3734,-92.8205
"Mammoth Spring","Arkansas","AR",36.4925,-91.5413
"Manila","Arkansas","AR",35.8847,-90.1652
"Mansfield","Arkansas","AR",35.0635,-94.2373
"Marianna","Arkansas","AR",34.7736,-90.7674
"Marie","Arkansas","AR",35.6130,-90.0829
"Marion","Arkansas","AR",35.2035,-90.2059
"Marked Tree","Arkansas","AR",35.5251,-90.4252
"Marmaduke","Arkansas","AR",36.1900,-90.3850
"Marshall","Arkansas","AR",35.9084,-92.6459
"Marvell","Arkansas","AR",34.5563,-90.9153
"Maumelle","Arkansas","AR",34.8522,-92.4000
"Mayflower","Arkansas","AR",34.9688,-92.4224
"Maynard","Arkansas","AR",36.4214,-90.9018
"McCaskill","Arkansas","AR",33.9187,-93.6417
"McCrory","Arkansas","AR",35.2573,-91.1972
"McDougal","Arkansas","AR",36.4365,-90.3907
"McGehee","Arkansas","AR",33.6278,-91.3953
"McNab","Arkansas","AR",33.6609,-93.8323
"McNeil","Arkansas","AR",33.3479,-93.2084
"McRae","Arkansas","AR",35.1119,-91.8253
"Melbourne","Arkansas","AR",36.0638,-91.8820
"Mena","Arkansas","AR",34.5812,-94.2369
"Menifee","Arkansas","AR",35.1493,-92.5544
"Midland","Arkansas","AR",35.0927,-94.3531
"Mineral Springs","Arkansas","AR",33.8771,-93.9217
"Minturn","Arkansas","AR",35.9764,-91.0273
"Mitchellville","Arkansas","AR",33.9051,-91.4984
"Monette","Arkansas","AR",35.8931,-90.3443
"Monticello","Arkansas","AR",33.6257,-91.7934
"Montrose","Arkansas","AR",33.2989,-91.4965
"Moorefield","Arkansas","AR",35.7672,-91.5708
"Moro","Arkansas","AR",34.7920,-90.9880
"Morrilton","Arkansas","AR",35.1558,-92.7387
"Morrison Bluff","Arkansas","AR",35.3828,-93.5228
"Mount Ida","Arkansas","AR",34.5509,-93.6309
"Mount Pleasant","Arkansas","AR",35.9819,-91.7771
"Mount Vernon","Arkansas","AR",35.2236,-92.1240
"Mountain Home","Arkansas","AR",36.3351,-92.3840
"Mountain Pine","Arkansas","AR",34.5693,-93.1726
"Mountain View","Arkansas","AR",35.8635,-92.1041
"Mountainburg","Arkansas","AR",35.6360,-94.1681
"Mulberry","Arkansas","AR",35.5100,-94.0740
"Murfreesboro","Arkansas","AR",34.0543,-93.6834
"Nashville","Arkansas","AR",33.9418,-93.8516
"Newark","Arkansas","AR",35.7076,-91.4434
"Newport","Arkansas","AR",35.6234,-91.2322
"Nimmons","Arkansas","AR",36.3062,-90.0951
"Norfork","Arkansas","AR",36.2099,-92.2803
"Norman","Arkansas","AR",34.4584,-93.6791
"Norphlet","Arkansas","AR",33.3198,-92.6619
"North Little Rock","Arkansas","AR",34.7807,-92.2371
"O'Kean","Arkansas","AR",36.1715,-90.8183
"Oak Grove","Arkansas","AR",36.4642,-93.4302
"Oak Grove Heights","Arkansas","AR",36.1271,-90.5085
"Oakhaven","Arkansas","AR",33.7293,-93.6205
"Oden","Arkansas","AR",34.6215,-93.7862
"Ogden","Arkansas","AR",33.5859,-94.0469
"Oil Trough","Arkansas","AR",35.6292,-91.4612
"Okolona","Arkansas","AR",34.0005,-93.3377
"Ola","Arkansas","AR",35.0310,-93.2244
"Omaha","Arkansas","AR",36.4583,-93.1910
"Oppelo","Arkansas","AR",35.1003,-92.7733
"Osceola","Arkansas","AR",35.6942,-89.9934
"Oxford","Arkansas","AR",36.2090,-91.9183
"Ozan","Arkansas","AR",33.8480,-93.7203
"Ozark","Arkansas","AR",35.4991,-93.8438
"Palestine","Arkansas","AR",34.9696,-90.9068
"Pangburn","Arkansas","AR",35.4261,-91.8394
"Paragould","Arkansas","AR",36.0555,-90.5149
"Paris","Arkansas","AR",35.2894,-93.7252
"Parkdale","Arkansas","AR",33.1212,-91.5464
"Parkin","Arkansas","AR",35.2629,-90.5530
"Patmos","Arkansas","AR",33.5112,-93.5679
"Patterson","Arkansas","AR",35.2590,-91.2350
"Pea Ridge","Arkansas","AR",36.4495,-94.1218
"Peach Orchard","Arkansas","AR",36.2812,-90.6608
"Perla","Arkansas","AR",34.3648,-92.7762
"Perry","Arkansas","AR",35.0459,-92.7948
"Perrytown","Arkansas","AR",33.6973,-93.5340
"Perryville","Arkansas","AR",35.0120,-92.8030
"Piggott","Arkansas","AR",36.3858,-90.2016
"Pindall","Arkansas","AR",36.0637,-92.8622
"Pine Bluff","Arkansas","AR",34.2116,-92.0173
"Pineville","Arkansas","AR",36.1612,-92.1065
"Plainview","Arkansas","AR",34.9899,-93.2980
"Pleasant Plains","Arkansas","AR",35.5545,-91.6273
"Plumerville","Arkansas","AR",35.1600,-92.6430
"Pocahontas","Arkansas","AR",36.2635,-90.9706
"Pollard","Arkansas","AR",36.4296,-90.2670
"Portia","Arkansas","AR",36.0848,-91.0711
"Portland","Arkansas","AR",33.2379,-91.5109
"Pottsville","Arkansas","AR",35.2312,-93.0654
"Powhatan","Arkansas","AR",36.0873,-91.1238
"Poyen","Arkansas","AR",34.3242,-92.6420
"Prairie Grove","Arkansas","AR",35.9858,-94.3049
"Prattsville","Arkansas","AR",34.3172,-92.5429
"Prescott","Arkansas","AR",33.8056,-93.3909
"Pyatt","Arkansas","AR",36.2509,-92.8443
"Quitman","Arkansas","AR",35.3817,-92.2147
"Ratcliff","Arkansas","AR",35.3066,-93.8887
"Ravenden","Arkansas","AR",36.2417,-91.2511
"Ravenden Springs","Arkansas","AR",36.3127,-91.2233
"Rector","Arkansas","AR",36.2642,-90.2935
"Redfield","Arkansas","AR",34.4429,-92.1844
"Reed","Arkansas","AR",33.7017,-91.4458
"Reyno","Arkansas","AR",36.3609,-90.7590
"Rison","Arkansas","AR",33.9599,-92.1936
"Rockport","Arkansas","AR",34.4069,-92.8077
"Roe","Arkansas","AR",34.6311,-91.3861
"Rogers","Arkansas","AR",36.3170,-94.1531
"Rondo","Arkansas","AR",34.6575,-90.8208
"Rose Bud","Arkansas","AR",35.3249,-92.0810
"Rosston","Arkansas","AR",33.5877,-93.2798
"Rudy","Arkansas","AR",35.5304,-94.2406
"Russell","Arkansas","AR",35.3621,-91.5100
"Russellville","Arkansas","AR",35.2762,-93.1383
"Salesville","Arkansas","AR",36.2410,-92.2769
"Scranton","Arkansas","AR",35.3606,-93.5394
"Searcy","Arkansas","AR",35.2418,-91.7351
"Sedgwick","Arkansas","AR",35.9742,-90.8621
"Shannon Hills","Arkansas","AR",34.6157,-92.4217
"Sheridan","Arkansas","AR",34.2996,-92.4223
"Sherrill","Arkansas","AR",34.3850,-91.9518
"Sherwood","Arkansas","AR",34.8507,-92.2029
"Shirley","Arkansas","AR",35.6442,-92.3137
"Sidney","Arkansas","AR",36.0044,-91.6583
"Siloam Springs","Arkansas","AR",36.1844,-94.5315
"Smackover","Arkansas","AR",33.3636,-92.7314
"Smithville","Arkansas","AR",36.0799,-91.3027
"South Lead Hill","Arkansas","AR",36.3956,-92.9063
"Southside","Arkansas","AR",35.7149,-91.6328
"Sparkman","Arkansas","AR",33.9172,-92.8501
"Springdale","Arkansas","AR",36.1901,-94.1574
"Springtown","Arkansas","AR",36.2606,-94.4239
"St. Charles","Arkansas","AR",34.3730,-91.1375
"St. Francis","Arkansas","AR",36.4556,-90.1428
"St. Joe","Arkansas","AR",36.0290,-92.8078
"St. Paul","Arkansas","AR",35.8246,-93.7641
"Stamps","Arkansas","AR",33.3568,-93.4955
"Star City","Arkansas","AR",33.9408,-91.8399
"Stephens","Arkansas","AR",33.4221,-93.0670
"Strawberry","Arkansas","AR",35.9665,-91.3211
"Strong","Arkansas","AR",33.1079,-92.3556
"Stuttgart","Arkansas","AR",34.4952,-91.5487
"Subiaco","Arkansas","AR",35.2982,-93.6385
"Success","Arkansas","AR",36.4545,-90.7226
"Sulphur Rock","Arkansas","AR",35.7517,-91.5003
"Summit","Arkansas","AR",36.2522,-92.6886
"Sunset","Arkansas","AR",35.2240,-90.2056
"Swifton","Arkansas","AR",35.8245,-91.1294
"Taylor","Arkansas","AR",33.0998,-93.4618
"Texarkana","Arkansas","AR",33.4360,-93.9959
"Thornton","Arkansas","AR",33.7756,-92.4889
"Tillar","Arkansas","AR",33.7109,-91.4517
"Tinsman","Arkansas","AR",33.6292,-92.3533
"Tollette","Arkansas","AR",33.8181,-93.8969
"Tontitown","Arkansas","AR",36.1642,-94.2457
"Traskwood","Arkansas","AR",34.4533,-92.6642
"Trumann","Arkansas","AR",35.6770,-90.5259
"Tuckerman","Arkansas","AR",35.7259,-91.2016
"Tull","Arkansas","AR",34.4409,-92.5779
"Tupelo","Arkansas","AR",35.3903,-91.2299
"Turrell","Arkansas","AR",35.3763,-90.2704
"Twin Groves","Arkansas","AR",35.3187,-92.4253
"Tyronza","Arkansas","AR",35.4868,-90.3560
"Ulm","Arkansas","AR",34.5762,-91.4617
"Valley Springs","Arkansas","AR",36.1537,-92.9896
"Van Buren","Arkansas","AR",35.4483,-94.3528
"Vandervoort","Arkansas","AR",34.3800,-94.3643
"Victoria","Arkansas","AR",35.7574,-90.0602
"Vilonia","Arkansas","AR",35.0807,-92.2088
"Viola","Arkansas","AR",36.3968,-91.9863
"Wabbaseka","Arkansas","AR",34.3592,-91.7928
"Waldenburg","Arkansas","AR",35.5652,-90.9346
"Waldo","Arkansas","AR",33.3524,-93.2956
"Waldron","Arkansas","AR",34.9022,-94.0953
"Walnut Ridge","Arkansas","AR",36.0848,-90.9467
"Ward","Arkansas","AR",35.0117,-91.9577
"Warren","Arkansas","AR",33.6113,-92.0678
"Washington","Arkansas","AR",33.7730,-93.6833
"Watson","Arkansas","AR",33.8940,-91.2566
"Weiner","Arkansas","AR",35.6197,-90.9054
"Weldon","Arkansas","AR",35.4479,-91.2315
"West Fork","Arkansas","AR",35.9355,-94.1800
"West Memphis","Arkansas","AR",35.1530,-90.1996
"West Point","Arkansas","AR",35.2034,-91.6100
"Western Grove","Arkansas","AR",36.1011,-92.9546
"Wheatley","Arkansas","AR",34.9212,-91.1063
"Whelen Springs","Arkansas","AR",33.8331,-93.1260
"White Hall","Arkansas","AR",34.2741,-92.1006
"Wickes","Arkansas","AR",34.2988,-94.3331
"Widener","Arkansas","AR",35.0233,-90.6818
"Wiederkehr Village","Arkansas","AR",35.4817,-93.7577
"Williford","Arkansas","AR",36.2518,-91.3605
"Willisville","Arkansas","AR",33.5194,-93.2949
"Wilmar","Arkansas","AR",33.6264,-91.9294
"Wilmot","Arkansas","AR",33.0588,-91.5749
"Wilson","Arkansas","AR",35.5661,-90.0430
"Wilton","Arkansas","AR",33.7388,-94.1480
"Winchester","Arkansas","AR",33.7741,-91.4737
"Winslow","Arkansas","AR",35.8008,-94.1304
"Winthrop","Arkansas","AR",33.8308,-94.3542
"Woodlawn","Arkansas","AR",33.9668,-92.0452
"Wooster","Arkansas","AR",35.1998,-92.4503
"Wrightsville","Arkansas","AR",34.6109,-92.2136
"Wynne","Arkansas","AR",35.2322,-90.7897
"Yellville","Arkansas","AR",36.2289,-92.6860
"Zinc","Arkansas","AR",36.2836,-92.9147
"Acalanes Ridge","California","CA",37.9046,-122.0786
"Adelanto","California","CA",34.5814,-117.4397
"Agoura Hills","California","CA",34.1510,-118.7609
"Airport","California","CA",37.6337,-120.9720
"Alameda","California","CA",37.7668,-122.2670
"Albany","California","CA",37.8897,-122.3018
"Alhambra","California","CA",34.0840,-118.1355
"Alhambra Valley","California","CA",37.9668,-122.1361
"Aliso Viejo","California","CA",33.5792,-117.7289
"Alturas","California","CA",41.4898,-120.5516
"Amador City","California","CA",38.4191,-120.8233
"American Canyon","California","CA",38.1796,-122.2583
"Anaheim","California","CA",33.8390,-117.8574
"Anderson","California","CA",40.4497,-122.2950
"Angels","California","CA",38.0706,-120.5501
"Antioch","California","CA",37.9787,-121.7960
"Apple Valley","California","CA",34.5352,-117.2109
"Aptos Hills-Larkin Valley","California","CA",36.9606,-121.8340
"Arcadia","California","CA",34.1342,-118.0373
"Arcata","California","CA",40.8615,-124.0758
"Arden-Arcade","California","CA",38.6017,-121.3845
"Arroyo Grande","California","CA",35.1241,-120.5845
"Artesia","California","CA",33.8676,-118.0805
"Arvin","California","CA",35.1944,-118.8306
"Atascadero","California","CA",35.4827,-120.6858
"Atherton","California","CA",37.4540,-122.2031
"Atwater","California","CA",37.3529,-120.5959
"Auburn","California","CA",38.8950,-121.0777
"Avalon","California","CA",33.3342,-118.3315
"Avenal","California","CA",36.0311,-120.1162
"Avila Beach","California","CA",35.1969,-120.7191
"Azusa","California","CA",34.1386,-117.9124
"Bakersfield","California","CA",35.3529,-119.0359
"Baldwin Park","California","CA",34.0829,-117.9722
"Banning","California","CA",33.9460,-116.8992
"Barstow","California","CA",34.8661,-117.0471
"Beale AFB","California","CA",39.1095,-121.3543
"Beaumont","California","CA",33.9076,-116.9766
"Bell","California","CA",33.9801,-118.1798
"Bell Canyon","California","CA",34.2082,-118.6876
"Bell Gardens","California","CA",33.9663,-118.1550
"Bellflower","California","CA",33.8880,-118.1271
"Belmont","California","CA",37.5154,-122.2953
"Belvedere","California","CA",37.8735,-122.4662
"Benicia","California","CA",38.0725,-122.1526
"Berkeley","California","CA",37.8722,-122.2760
"Bertsch-Oceanview","California","CA",41.7524,-124.1594
"Beverly Hills","California","CA",34.0786,-118.4021
"Big Bear Lake","California","CA",34.2429,-116.8951
"Biggs","California","CA",39.4102,-121.7134
"Bishop","California","CA",37.3665,-118.3958
"Black Point-Green Point","California","CA",38.1121,-122.5194
"Blacklake","California","CA",35.0497,-120.5387
"Blue Lake","California","CA",40.8814,-123.9930
"Blythe","California","CA",33.6219,-114.6195
"Bradbury","California","CA",34.1536,-117.9684
"Brawley","California","CA",32.9783,-115.5287
"Brea","California","CA",33.9254,-117.8655
"Brentwood","California","CA",37.9356,-121.7190
"Bret Harte","California","CA",37.6021,-121.0045
"Brisbane","California","CA",37.6902,-122.4021
"Buellton","California","CA",34.6152,-120.1943
"Buena Park","California","CA",33.8572,-118.0046
"Burbank","California","CA",34.1879,-118.3235
"Burlingame","California","CA",37.5859,-122.3667
"Butte Creek Canyon","California","CA",39.7489,-121.6968
"Butte Valley","California","CA",39.6571,-121.6363
"C-Road","California","CA",39.7627,-120.5770
"Calabasas","California","CA",34.1375,-118.6689
"Calexico","California","CA",32.6849,-115.4944
"California City","California","CA",35.1578,-117.8721
"Calimesa","California","CA",33.9874,-117.0542
"Calipatria","California","CA",33.1493,-115.5055
"Calistoga","California","CA",38.5818,-122.5824
"Camanche North Shore","California","CA",38.2442,-120.9538
"Camarillo","California","CA",34.2230,-119.0321
"Camp Pendleton South","California","CA",33.2329,-117.3930
"Campbell","California","CA",37.2802,-121.9539
"Canyon Lake","California","CA",33.6885,-117.2621
"Capitola","California","CA",36.9773,-121.9537
"Carlsbad","California","CA",33.1246,-117.2834
"Carmel-by-the-Sea","California","CA",36.5528,-121.9222
"Carpinteria","California","CA",34.3962,-119.5118
"Carson","California","CA",33.8374,-118.2559
"Casa de Oro-Mount Helix","California","CA",32.7640,-116.9688
"Castle Hill","California","CA",37.8747,-122.0585
"Cathedral City","California","CA",33.8362,-116.4642
"Ceres","California","CA",37.5952,-120.9620
"Cerritos","California","CA",33.8678,-118.0686
"Chalfant","California","CA",37.5105,-118.3750
"Challenge-Brownsville","California","CA",39.4646,-121.2633
"Chico","California","CA",39.7578,-121.8161
"Chilcoot-Vinton","California","CA",39.8067,-120.1388
"Chino","California","CA",33.9836,-117.6654
"Chino Hills","California","CA",33.9508,-117.7254
"Chowchilla","California","CA",37.1095,-120.2349
"Chula Vista","California","CA",32.6281,-117.0144
"Citrus Heights","California","CA",38.6948,-121.2880
"Claremont","California","CA",34.1259,-117.7153
"Clayton","California","CA",37.9404,-121.9301
"Clearlake","California","CA",38.9589,-122.6330
"Clearlake Riviera","California","CA",38.9513,-122.7208
"Cloverdale","California","CA",38.7962,-123.0152
"Clovis","California","CA",36.8278,-119.6830
"Coachella","California","CA",33.6905,-116.1430
"Coalinga","California","CA",36.1420,-120.3242
"Colfax","California","CA",39.0938,-120.9532
"Colma","California","CA",37.6767,-122.4528
"Colton","California","CA",34.0538,-117.3255
"Colusa","California","CA",39.2059,-122.0125
"Commerce","California","CA",33.9963,-118.1519
"Compton","California","CA",33.8930,-118.2274
"Concord","California","CA",37.9722,-122.0016
"Corcoran","California","CA",36.0841,-119.5613
"Corning","California","CA",39.9283,-122.1819
"Corona","California","CA",33.8616,-117.5649
"Coronado","California","CA",32.6649,-117.1604
"Coronita","California","CA",33.8760,-117.6109
"Corte Madera","California","CA",37.9238,-122.5128
"Costa Mesa","California","CA",33.6667,-117.9135
"Cotati","California","CA",38.3278,-122.7092
"Covina","California","CA",34.0903,-117.8818
"Cowan","California","CA",37.5601,-120.9888
"Crescent City","California","CA",41.7728,-124.1902
"Crowley Lake","California","CA",37.5689,-118.7463
"Cudahy","California","CA",33.9631,-118.1830
"Culver City","California","CA",34.0058,-118.3968
"Cupertino","California","CA",37.3168,-122.0466
"Cypress","California","CA",33.8171,-118.0386
"Daly City","California","CA",37.6862,-122.4685
"Dana Point","California","CA",33.4733,-117.6967
"Danville","California","CA",37.8121,-121.9698
"Davis","California","CA",38.5553,-121.7370
"Del Mar","California","CA",32.9635,-117.2624
"Del Rey Oaks","California","CA",36.5913,-121.8290
"Delano","California","CA",35.7662,-119.2635
"Desert Hot Springs","California","CA",33.9550,-116.5429
"Desert Palms","California","CA",33.7789,-116.2930
"Diablo Grande","California","CA",37.4009,-121.2629
"Diamond Bar","California","CA",33.9992,-117.8161
"Dinuba","California","CA",36.5453,-119.3987
"Dixon","California","CA",38.4469,-121.8250
"Dixon Lane-Meadow Creek","California","CA",37.3864,-118.4153
"Dorris","California","CA",41.9644,-121.9205
"Dos Palos","California","CA",36.9854,-120.6338
"Downey","California","CA",33.9379,-118.1311
"Duarte","California","CA",34.1610,-117.9504
"Dublin","California","CA",37.7161,-121.8963
"Dunsmuir","California","CA",41.2317,-122.2715
"East Palo Alto","California","CA",37.4671,-122.1352
"East Tulare Villa","California","CA",36.2038,-119.2803
"Eastvale","California","CA",33.9617,-117.5803
"Edwards AFB","California","CA",34.9045,-117.9294
"El Cajon","California","CA",32.8017,-116.9604
"El Centro","California","CA",32.7865,-115.5595
"El Cerrito","California","CA",37.9196,-122.3025
"El Monte","California","CA",34.0739,-118.0291
"El Paso de Robles","California","CA",35.6394,-120.6560
"El Rancho","California","CA",36.2207,-119.0684
"El Segundo","California","CA",33.9170,-118.4018
"El Sobrante","California","CA",33.8724,-117.4624
"Elizabeth Lake","California","CA",34.6589,-118.3785
"Elk Grove","California","CA",38.4161,-121.3842
"Emeryville","California","CA",37.8382,-122.2932
"Encinitas","California","CA",33.0492,-117.2610
"Escalon","California","CA",37.7912,-120.9982
"Escondido","California","CA",33.1348,-117.0723
"Etna","California","CA",41.4582,-122.8945
"Eureka","California","CA",40.7943,-124.1564
"Exeter","California","CA",36.2941,-119.1459
"Fairfax","California","CA",37.9886,-122.5952
"Fairfield","California","CA",38.2583,-122.0335
"Farmersville","California","CA",36.3050,-119.2083
"Ferndale","California","CA",40.5781,-124.2612
"Fetters Hot Springs-Agua Caliente","California","CA",38.3274,-122.4871
"Fillmore","California","CA",34.3989,-118.9174
"Firebaugh","California","CA",36.8533,-120.4535
"Florence-Graham","California","CA",33.9682,-118.2447
"Folsom","California","CA",38.6668,-121.1422
"Fontana","California","CA",34.0968,-117.4599
"Fort Bragg","California","CA",39.4399,-123.8013
"Fort Irwin","California","CA",35.2477,-116.6834
"Fort Jones","California","CA",41.6086,-122.8409
"Fort Washington","California","CA",36.8793,-119.7613
"Fortuna","California","CA",40.5862,-124.1419
"Foster City","California","CA",37.5553,-122.2659
"Fountain Valley","California","CA",33.7105,-117.9514
"Fowler","California","CA",36.6243,-119.6737
"Franklin","California","CA",37.3275,-120.5321
"Fremont","California","CA",37.5265,-121.9843
"French Valley","California","CA",33.5999,-117.1069
"Fresno","California","CA",36.7830,-119.7939
"Fruitridge Pocket","California","CA",38.5326,-121.4558
"Fullerton","California","CA",33.8841,-117.9279
"Galt","California","CA",38.2698,-121.3004
"Garden Grove","California","CA",33.7787,-117.9601
"Gardena","California","CA",33.8943,-118.3072
"Gilroy","California","CA",37.0046,-121.5854
"Glendale","California","CA",34.1819,-118.2468
"Glendora","California","CA",34.1449,-117.8467
"Gold Mountain","California","CA",39.7613,-120.5191
"Goleta","California","CA",34.4361,-119.8594
"Gonzales","California","CA",36.5055,-121.4427
"Grand Terrace","California","CA",34.0312,-117.3132
"Grass Valley","California","CA",39.2238,-121.0522
"Greenfield","California","CA",36.3242,-121.2428
"Gridley","California","CA",39.3622,-121.6971
"Grizzly Flats","California","CA",38.6358,-120.5354
"Grover Beach","California","CA",35.1204,-120.6197
"Guadalupe","California","CA",34.9609,-120.5735
"Gustine","California","CA",37.2545,-120.9949
"Half Moon Bay","California","CA",37.4685,-122.4382
"Hanford","California","CA",36.3274,-119.6549
"Hasley Canyon","California","CA",34.4817,-118.6665
"Hawaiian Gardens","California","CA",33.8304,-118.0728
"Hawthorne","California","CA",33.9147,-118.3476
"Hayward","California","CA",37.6328,-122.0766
"Healdsburg","California","CA",38.6224,-122.8651
"Hemet","California","CA",33.7341,-116.9969
"Hercules","California","CA",38.0064,-122.2564
"Herlong","California","CA",40.1417,-120.1397
"Hermosa Beach","California","CA",33.8653,-118.3962
"Hesperia","California","CA",34.3975,-117.3147
"Hidden Hills","California","CA",34.1637,-118.6612
"Highland","California","CA",34.1113,-117.1650
"Hillsborough","California","CA",37.5572,-122.3586
"Hilmar-Irwin","California","CA",37.4045,-120.8504
"Hollister","California","CA",36.8555,-121.3986
"Holtville","California","CA",32.8129,-115.3779
"Homestead Valley","California","CA",34.2730,-116.4146
"Homewood Canyon","California","CA",35.8900,-117.3863
"Hughson","California","CA",37.6020,-120.8660
"Huntington Beach","California","CA",33.6960,-118.0018
"Huntington Park","California","CA",33.9800,-118.2167
"Huron","California","CA",36.2041,-120.0961
"Idyllwild-Pine Cove","California","CA",33.7443,-116.7258
"Imperial","California","CA",32.8390,-115.5720
"Imperial Beach","California","CA",32.5693,-117.1180
"Indian Wells","California","CA",33.7036,-116.3396
"Indio","California","CA",33.7346,-116.2346
"Industry","California","CA",34.0175,-117.9267
"Inglewood","California","CA",33.9566,-118.3444
"Ione","California","CA",38.3613,-120.9422
"Irvine","California","CA",33.6772,-117.7738
"Irwindale","California","CA",34.1121,-117.9636
"Isleton","California","CA",38.1617,-121.6051
"Jackson","California","CA",38.3485,-120.7728
"Jurupa Valley","California","CA",34.0010,-117.4706
"Kelly Ridge","California","CA",39.5289,-121.4662
"Kennedy Meadows","California","CA",36.0076,-118.1099
"Kerman","California","CA",36.7248,-120.0625
"King City","California","CA",36.2164,-121.1330
"Kingsburg","California","CA",36.5244,-119.5602
"La Caada Flintridge","California","CA",34.2097,-118.2002
"La Crescenta-Montrose","California","CA",34.2322,-118.2353
"La Habra","California","CA",33.9282,-117.9515
"La Habra Heights","California","CA",33.9603,-117.9510
"La Mesa","California","CA",32.7703,-117.0204
"La Mirada","California","CA",33.9025,-118.0093
"La Palma","California","CA",33.8504,-118.0407
"La Puente","California","CA",34.0323,-117.9533
"La Quinta","California","CA",33.6536,-116.2785
"La Verne","California","CA",34.1207,-117.7703
"Lafayette","California","CA",37.8919,-122.1189
"Laguna Beach","California","CA",33.5455,-117.7613
"Laguna Hills","California","CA",33.5918,-117.6991
"Laguna Niguel","California","CA",33.5275,-117.7050
"Laguna Woods","California","CA",33.6099,-117.7299
"Lagunitas-Forest Knolls","California","CA",38.0180,-122.6912
"Lake California","California","CA",40.3608,-122.2102
"Lake Don Pedro","California","CA",37.6590,-120.3329
"Lake Elsinore","California","CA",33.6847,-117.3344
"Lake Forest","California","CA",33.6605,-117.6714
"Lake Mathews","California","CA",33.8250,-117.3683
"Lake Riverside","California","CA",33.5173,-116.8107
"Lake Sherwood","California","CA",34.1340,-118.8804
"Lakeport","California","CA",39.0392,-122.9218
"Lakewood","California","CA",33.8471,-118.1222
"Lancaster","California","CA",34.6935,-118.1753
"Larkfield-Wikiup","California","CA",38.5130,-122.7536
"Larkspur","California","CA",37.9393,-122.5312
"Lathrop","California","CA",37.8090,-121.3131
"Lawndale","California","CA",33.8884,-118.3531
"Lemon Cove","California","CA",36.3809,-119.0284
"Lemon Grove","California","CA",32.7331,-117.0344
"Lemon Hill","California","CA",38.5172,-121.4573
"Lemoore","California","CA",36.2949,-119.7983
"Lemoore Station","California","CA",36.2633,-119.9048
"Lincoln","California","CA",38.8774,-121.2937
"Lindsay","California","CA",36.2082,-119.0897
"Linnell Camp","California","CA",36.3089,-119.2225
"Livermore","California","CA",37.6868,-121.7607
"Livingston","California","CA",37.3875,-120.7248
"Lodi","California","CA",38.1218,-121.2932
"Loma Linda","California","CA",34.0450,-117.2498
"Lomita","California","CA",33.7933,-118.3175
"Lompoc","California","CA",34.6618,-120.4714
"Long Beach","California","CA",33.7977,-118.1670
"Loomis","California","CA",38.8093,-121.1955
"Los Alamitos","California","CA",33.7971,-118.0592
"Los Altos","California","CA",37.3684,-122.0965
"Los Altos Hills","California","CA",37.3669,-122.1387
"Los Angeles","California","CA",34.1141,-118.4068
"Los Banos","California","CA",37.0630,-120.8406
"Los Gatos","California","CA",37.2304,-121.9562
"Los Ranchos","California","CA",35.2104,-120.6295
"Loyalton","California","CA",39.6768,-120.2448
"Lucas Valley-Marinwood","California","CA",38.0405,-122.5765
"Lynwood","California","CA",33.9240,-118.2016
"Madera","California","CA",36.9630,-120.0778
"Malibu","California","CA",34.0370,-118.7839
"Mammoth Lakes","California","CA",37.6273,-118.9900
"Manhattan Beach","California","CA",33.8894,-118.3967
"Manteca","California","CA",37.7927,-121.2264
"March ARB","California","CA",33.8888,-117.2776
"Maricopa","California","CA",35.0516,-119.4058
"Marina","California","CA",36.6810,-121.7892
"Martinez","California","CA",37.9985,-122.1161
"Marysville","California","CA",39.1518,-121.5835
"Matheny","California","CA",36.1707,-119.3516
"Mather","California","CA",38.5488,-121.2831
"Mayfair","California","CA",36.7694,-119.7612
"Maywood","California","CA",33.9886,-118.1877
"McClellan Park","California","CA",38.6629,-121.4016
"McClenney Tract","California","CA",35.8220,-118.6477
"McFarland","California","CA",35.6781,-119.2413
"McGee Creek","California","CA",37.5727,-118.7910
"McSwain","California","CA",37.3145,-120.5868
"Meadowbrook","California","CA",33.7253,-117.2851
"Mendota","California","CA",36.7555,-120.3776
"Menifee","California","CA",33.6909,-117.1849
"Menlo Park","California","CA",37.4685,-122.1673
"Merced","California","CA",37.3057,-120.4779
"Mesa","California","CA",37.4190,-118.5424
"Mill Valley","California","CA",37.9086,-122.5421
"Millbrae","California","CA",37.5994,-122.4023
"Milpitas","California","CA",37.4336,-121.8921
"Mission Viejo","California","CA",33.6096,-117.6551
"Modesto","California","CA",37.6375,-121.0028
"Monrovia","California","CA",34.1650,-117.9921
"Montague","California","CA",41.7275,-122.5302
"Montalvin Manor","California","CA",37.9977,-122.3300
"Montclair","California","CA",34.0715,-117.6981
"Monte Sereno","California","CA",37.2405,-121.9881
"Montebello","California","CA",34.0155,-118.1108
"Monterey","California","CA",36.5919,-121.8808
"Monterey Park","California","CA",34.0497,-118.1326
"Monterey Park Tract","California","CA",37.5268,-121.0115
"Monument Hills","California","CA",38.6641,-121.8754
"Moorpark","California","CA",34.2861,-118.8768
"Moraga","California","CA",37.8439,-122.1225
"Moreno Valley","California","CA",33.9244,-117.2045
"Morgan Hill","California","CA",37.1325,-121.6419
"Morro Bay","California","CA",35.3682,-120.8482
"Mount Shasta","California","CA",41.3206,-122.3150
"Mountain View","California","CA",37.4001,-122.0796
"Murrieta","California","CA",33.5719,-117.1909
"Napa","California","CA",38.2975,-122.3010
"National City","California","CA",32.6654,-117.0983
"Needles","California","CA",34.8164,-114.6189
"Nevada City","California","CA",39.2607,-121.0231
"Newark","California","CA",37.5201,-122.0307
"Newman","California","CA",37.3156,-121.0212
"Newport Beach","California","CA",33.6151,-117.8668
"Norco","California","CA",33.9252,-117.5498
"Norris Canyon","California","CA",37.7457,-121.9881
"North Gate","California","CA",37.9055,-121.9978
"North Lakeport","California","CA",39.0883,-122.9053
"North Shore","California","CA",33.5157,-115.9092
"Norwalk","California","CA",33.9069,-118.0829
"Novato","California","CA",38.0920,-122.5575
"Oak Shores","California","CA",35.7602,-120.9813
"Oakdale","California","CA",37.7618,-120.8468
"Oakland","California","CA",37.7904,-122.2166
"Oakley","California","CA",37.9929,-121.6952
"Oceanside","California","CA",33.2247,-117.3083
"Ojai","California","CA",34.4488,-119.2469
"Old Fig Garden","California","CA",36.7989,-119.8052
"Ontario","California","CA",34.0393,-117.6064
"Orange","California","CA",33.8038,-117.8218
"Orange Cove","California","CA",36.6211,-119.3188
"Orinda","California","CA",37.8808,-122.1790
"Orland","California","CA",39.7461,-122.1856
"Oroville","California","CA",39.4999,-121.5634
"Oroville East","California","CA",39.4947,-121.4866
"Oxnard","California","CA",34.1964,-119.1815
"Pacific Grove","California","CA",36.6188,-121.9259
"Pacifica","California","CA",37.6113,-122.4782
"Pajaro Dunes","California","CA",36.8722,-121.8101
"Palm Desert","California","CA",33.7378,-116.3695
"Palm Springs","California","CA",33.8017,-116.5382
"Palmdale","California","CA",34.5944,-118.1057
"Palo Alto","California","CA",37.3905,-122.1468
"Palos Verdes Estates","California","CA",33.7872,-118.3973
"Paradise","California","CA",39.7558,-121.6063
"Paramount","California","CA",33.8977,-118.1651
"Parklawn","California","CA",37.6071,-120.9803
"Parlier","California","CA",36.6087,-119.5434
"Pasadena","California","CA",34.1597,-118.1390
"Patterson","California","CA",37.4758,-121.1536
"Patterson Tract","California","CA",36.3795,-119.2956
"Perris","California","CA",33.7898,-117.2233
"Petaluma","California","CA",38.2423,-122.6266
"Pico Rivera","California","CA",33.9901,-118.0888
"Piedmont","California","CA",37.8225,-122.2301
"Pierpoint","California","CA",36.1405,-118.6296
"Pine Canyon","California","CA",36.1757,-121.1498
"Pine Mountain Lake","California","CA",37.8599,-120.1844
"Pinole","California","CA",37.9931,-122.2833
"Pismo Beach","California","CA",35.1487,-120.6493
"Pittsburg","California","CA",38.0182,-121.8965
"Placentia","California","CA",33.8807,-117.8553
"Placerville","California","CA",38.7308,-120.7979
"Pleasant Hill","California","CA",37.9539,-122.0759
"Pleasanton","California","CA",37.6663,-121.8805
"Pleasure Point","California","CA",36.9619,-121.9715
"Plymouth","California","CA",38.4776,-120.8584
"Point Arena","California","CA",38.9123,-123.6955
"Pomona","California","CA",34.0585,-117.7626
"Poplar-Cotton Center","California","CA",36.0577,-119.1502
"Port Hueneme","California","CA",34.1618,-119.2036
"Porterville","California","CA",36.0643,-119.0338
"Portola","California","CA",39.8241,-120.4733
"Portola Valley","California","CA",37.3711,-122.2202
"Poway","California","CA",32.9871,-117.0201
"Rackerby","California","CA",39.4261,-121.3542
"Rancho Cordova","California","CA",38.5737,-121.2527
"Rancho Cucamonga","California","CA",34.1247,-117.5667
"Rancho Mirage","California","CA",33.7635,-116.4271
"Rancho Palos Verdes","California","CA",33.7554,-118.3634
"Rancho Santa Margarita","California","CA",33.6318,-117.5988
"Red Bluff","California","CA",40.1735,-122.2413
"Red Corral","California","CA",38.4121,-120.6072
"Redding","California","CA",40.5698,-122.3650
"Redlands","California","CA",34.0512,-117.1712
"Redondo Beach","California","CA",33.8577,-118.3765
"Redwood City","California","CA",37.5025,-122.2253
"Reedley","California","CA",36.5988,-119.4471
"Reliez Valley","California","CA",37.9399,-122.1027
"Rialto","California","CA",34.1175,-117.3892
"Richmond","California","CA",37.9477,-122.3389
"Ridgecrest","California","CA",35.6308,-117.6622
"Rio Dell","California","CA",40.5023,-124.1105
"Rio Vista","California","CA",38.1765,-121.7025
"Ripon","California","CA",37.7417,-121.1310
"Riverbank","California","CA",37.7260,-120.9433
"Riverside","California","CA",33.9381,-117.3949
"Robinson Mill","California","CA",39.4857,-121.3202
"Rocklin","California","CA",38.8075,-121.2489
"Rodriguez Camp","California","CA",35.8090,-119.1388
"Rohnert Park","California","CA",38.3479,-122.6965
"Rolling Hills","California","CA",33.7601,-118.3471
"Rolling Hills Estates","California","CA",33.7783,-118.3509
"Rose Hills","California","CA",34.0089,-118.0419
"Rosemead","California","CA",34.0689,-118.0823
"Roseville","California","CA",38.7703,-121.3196
"Ross","California","CA",37.9638,-122.5615
"Rouse","California","CA",37.6196,-121.0084
"Sacramento","California","CA",38.5677,-121.4685
"Salinas","California","CA",36.6883,-121.6317
"San Anselmo","California","CA",37.9821,-122.5699
"San Bernardino","California","CA",34.1416,-117.2943
"San Bruno","California","CA",37.6256,-122.4313
"San Buenaventura","California","CA",34.2741,-119.2314
"San Carlos","California","CA",37.4982,-122.2677
"San Clemente","California","CA",33.4499,-117.6102
"San Diego","California","CA",32.8313,-117.1222
"San Dimas","California","CA",34.1082,-117.8090
"San Fernando","California","CA",34.2886,-118.4362
"San Francisco","California","CA",37.7558,-122.4449
"San Gabriel","California","CA",34.0949,-118.0990
"San Jacinto","California","CA",33.7970,-116.9916
"San Joaquin","California","CA",36.6057,-120.1897
"San Jose","California","CA",37.3012,-121.8480
"San Juan Bautista","California","CA",36.8450,-121.5371
"San Juan Capistrano","California","CA",33.5008,-117.6544
"San Leandro","California","CA",37.7074,-122.1599
"San Luis Obispo","California","CA",35.2669,-120.6690
"San Marcos","California","CA",33.1350,-117.1743
"San Marino","California","CA",34.1224,-118.1132
"San Mateo","California","CA",37.5522,-122.3121
"San Miguel","California","CA",37.8867,-122.0368
"San Pablo","California","CA",37.9629,-122.3426
"San Pasqual","California","CA",34.1393,-118.1027
"San Rafael","California","CA",37.9905,-122.5221
"San Ramon","California","CA",37.7624,-121.9365
"Sand City","California","CA",36.6184,-121.8477
"Sanger","California","CA",36.6990,-119.5575
"Santa Ana","California","CA",33.7367,-117.8819
"Santa Barbara","California","CA",34.4285,-119.7202
"Santa Clara","California","CA",37.3646,-121.9680
"Santa Clarita","California","CA",34.4175,-118.4964
"Santa Cruz","California","CA",36.9789,-122.0346
"Santa Fe Springs","California","CA",33.9329,-118.0625
"Santa Maria","California","CA",34.9333,-120.4431
"Santa Monica","California","CA",34.0235,-118.4810
"Santa Nella","California","CA",37.1012,-121.0157
"Santa Paula","California","CA",34.3545,-119.0656
"Santa Rosa","California","CA",38.4458,-122.7067
"Santa Rosa Valley","California","CA",34.2459,-118.9018
"Santee","California","CA",32.8554,-116.9851
"Saratoga","California","CA",37.2684,-122.0263
"Sausalito","California","CA",37.8581,-122.4933
"Scotts Valley","California","CA",37.0555,-122.0118
"Seal Beach","California","CA",33.7542,-118.0714
"Seaside","California","CA",36.6224,-121.8199
"Sebastopol","California","CA",38.4001,-122.8275
"Selma","California","CA",36.5715,-119.6143
"Sequoia Crest","California","CA",36.1858,-118.6256
"Sereno del Mar","California","CA",38.3836,-123.0733
"Shafter","California","CA",35.4794,-119.2013
"Shasta Lake","California","CA",40.6790,-122.3775
"Shell Ridge","California","CA",37.9060,-122.0345
"Sierra Madre","California","CA",34.1687,-118.0504
"Signal Hill","California","CA",33.8030,-118.1681
"Silverado Resort","California","CA",38.3536,-122.2556
"Simi Valley","California","CA",34.2663,-118.7490
"Solana Beach","California","CA",32.9943,-117.2574
"Soledad","California","CA",36.4432,-121.3426
"Solvang","California","CA",34.5935,-120.1401
"Sonoma","California","CA",38.2902,-122.4598
"Sonora","California","CA",37.9819,-120.3828
"South El Monte","California","CA",34.0493,-118.0484
"South Gate","California","CA",33.9447,-118.1926
"South Lake Tahoe","California","CA",38.9393,-119.9828
"South Monrovia Island","California","CA",34.1234,-117.9958
"South Pasadena","California","CA",34.1103,-118.1573
"South San Francisco","California","CA",37.6538,-122.4196
"Spaulding","California","CA",40.6557,-120.7863
"St. Helena","California","CA",38.5063,-122.4682
"Stanton","California","CA",33.8003,-117.9935
"Stevenson Ranch","California","CA",34.3894,-118.5883
"Stockton","California","CA",37.9765,-121.3109
"Sugarloaf Saw Mill","California","CA",35.8345,-118.6167
"Suisun City","California","CA",38.2473,-122.0091
"Sun Village","California","CA",34.5596,-117.9558
"Sunny Slopes","California","CA",37.5693,-118.6758
"Sunnyside-Tahoe City","California","CA",39.1507,-120.1596
"Sunnyvale","California","CA",37.3836,-122.0255
"Susanville","California","CA",40.4206,-120.6132
"Sutter Creek","California","CA",38.3827,-120.8106
"Swall Meadows","California","CA",37.5061,-118.6426
"Taft","California","CA",35.1268,-119.4243
"Taft Mosswood","California","CA",37.9139,-121.2831
"Tamalpais-Homestead Valley","California","CA",37.8793,-122.5382
"Tehachapi","California","CA",35.1276,-118.4744
"Tehama","California","CA",40.0217,-122.1268
"Temecula","California","CA",33.4928,-117.1315
"Temescal Valley","California","CA",33.7581,-117.4677
"Temple City","California","CA",34.1022,-118.0579
"Teviston","California","CA",35.9289,-119.2783
"Thousand Oaks","California","CA",34.1914,-118.8756
"Tiburon","California","CA",37.8854,-122.4637
"Timber Cove","California","CA",38.5410,-123.2589
"Tooleville","California","CA",36.2878,-119.1154
"Torrance","California","CA",33.8346,-118.3416
"Tracy","California","CA",37.7269,-121.4523
"Trinidad","California","CA",41.0589,-124.1434
"Trona","California","CA",35.8150,-117.3449
"Truckee","California","CA",39.3455,-120.1848
"Tulare","California","CA",36.1995,-119.3400
"Tulelake","California","CA",41.9533,-121.4751
"Turlock","California","CA",37.5053,-120.8588
"Tustin","California","CA",33.7311,-117.8107
"Twentynine Palms","California","CA",34.1478,-116.0659
"Ukiah","California","CA",39.1464,-123.2105
"Union City","California","CA",37.6032,-122.0181
"University of California-Davis","California","CA",38.5378,-121.7579
"University of California-Merced","California","CA",37.3666,-120.4192
"Upland","California","CA",34.1178,-117.6604
"Vacaville","California","CA",38.3587,-121.9673
"Vallejo","California","CA",38.1125,-122.2342
"Vandenberg AFB","California","CA",34.7477,-120.5190
"Vernon","California","CA",34.0019,-118.2105
"Victorville","California","CA",34.5277,-117.3536
"View Park-Windsor Hills","California","CA",33.9955,-118.3483
"Villa Park","California","CA",33.8180,-117.8104
"Vincent","California","CA",34.0983,-117.9238
"Visalia","California","CA",36.3276,-119.3269
"Vista","California","CA",33.1896,-117.2386
"Walnut","California","CA",34.0334,-117.8593
"Walnut Creek","California","CA",37.9024,-122.0399
"Warm Springs","California","CA",33.7067,-117.3343
"Warner Valley","California","CA",40.3955,-121.3174
"Wasco","California","CA",35.5938,-119.3671
"Waterford","California","CA",37.6429,-120.7553
"Watsonville","California","CA",36.9206,-121.7708
"Weed","California","CA",41.4127,-122.3816
"West Covina","California","CA",34.0555,-117.9113
"West Goshen","California","CA",36.3492,-119.4574
"West Hollywood","California","CA",34.0883,-118.3719
"West Modesto","California","CA",37.6178,-121.0346
"West Sacramento","California","CA",38.5557,-121.5505
"West Whittier-Los Nietos","California","CA",33.9759,-118.0689
"Westhaven-Moonstone","California","CA",41.0447,-124.1023
"Westlake Village","California","CA",34.1369,-118.8220
"Westminster","California","CA",33.7523,-117.9938
"Westmorland","California","CA",33.0389,-115.6223
"Wheatland","California","CA",39.0287,-121.3900
"Whitewater","California","CA",33.9356,-116.6873
"Whittier","California","CA",33.9678,-118.0188
"Wildomar","California","CA",33.6173,-117.2582
"Wilkerson","California","CA",37.2794,-118.3877
"Williams","California","CA",39.1498,-122.1389
"Willits","California","CA",39.4047,-123.3494
"Willows","California","CA",39.5149,-122.1995
"Windsor","California","CA",38.5422,-122.8089
"Winters","California","CA",38.5320,-121.9781
"Woodlake","California","CA",36.4122,-119.1000
"Woodland","California","CA",38.6712,-121.7500
"Woodlands","California","CA",35.0289,-120.5524
"Woodside","California","CA",37.4221,-122.2586
"Yorba Linda","California","CA",33.8890,-117.7714
"Yosemite Valley","California","CA",37.7407,-119.5779
"Yountville","California","CA",38.3963,-122.3671
"Yreka","California","CA",41.7291,-122.6312
"Yuba City","California","CA",39.1357,-121.6383
"Yucaipa","California","CA",34.0336,-117.0429
"Yucca Valley","California","CA",34.1234,-116.4216
"Aetna Estates","Colorado","CO",39.7381,-104.6732
"Aguilar","Colorado","CO",37.4036,-104.6550
"Air Force Academy","Colorado","CO",38.9942,-104.8639
"Akron","Colorado","CO",40.1635,-103.2202
"Alamosa","Colorado","CO",37.4752,-105.8770
"Alamosa East","Colorado","CO",37.4766,-105.8397
"Alma","Colorado","CO",39.2860,-106.0672
"Antonito","Colorado","CO",37.0762,-106.0104
"Arriba","Colorado","CO",39.2843,-103.2740
"Arvada","Colorado","CO",39.8320,-105.1510
"Aspen","Colorado","CO",39.1951,-106.8369
"Ault","Colorado","CO",40.5893,-104.7392
"Aurora","Colorado","CO",39.7083,-104.7237
"Avon","Colorado","CO",39.6442,-106.5130
"Basalt","Colorado","CO",39.3663,-107.0413
"Bayfield","Colorado","CO",37.2340,-107.5952
"Bennett","Colorado","CO",39.7366,-104.4286
"Berthoud","Colorado","CO",40.3071,-105.0426
"Bethune","Colorado","CO",39.3038,-102.4234
"Black Hawk","Colorado","CO",39.8043,-105.4950
"Blanca","Colorado","CO",37.4393,-105.5135
"Blue River","Colorado","CO",39.4362,-106.0350
"Blue Sky","Colorado","CO",40.3002,-103.8056
"Bonanza","Colorado","CO",38.2966,-106.1419
"Boone","Colorado","CO",38.2495,-104.2583
"Boulder","Colorado","CO",40.0248,-105.2524
"Bow Mar","Colorado","CO",39.6251,-105.0511
"Branson","Colorado","CO",37.0155,-103.8838
"Breckenridge","Colorado","CO",39.4995,-106.0432
"Brick Center","Colorado","CO",39.6002,-104.4579
"Brighton","Colorado","CO",39.9716,-104.7963
"Brookside","Colorado","CO",38.4135,-105.1909
"Broomfield","Colorado","CO",39.9542,-105.0526
"Brush","Colorado","CO",40.2598,-103.6323
"Buena Vista","Colorado","CO",38.8319,-106.1387
"Burlington","Colorado","CO",39.3042,-102.2712
"Calhan","Colorado","CO",39.0345,-104.2994
"Campo","Colorado","CO",37.1047,-102.5786
"Caon City","Colorado","CO",38.4430,-105.2203
"Carbondale","Colorado","CO",39.3949,-107.2148
"Cascade-Chipita Park","Colorado","CO",38.9433,-105.0023
"Castle Pines","Colorado","CO",39.4625,-104.8706
"Castle Rock","Colorado","CO",39.3763,-104.8535
"Cedaredge","Colorado","CO",38.8941,-107.9255
"Centennial","Colorado","CO",39.5926,-104.8673
"Center","Colorado","CO",37.7512,-106.1105
"Central City","Colorado","CO",39.7945,-105.5120
"Cheraw","Colorado","CO",38.1076,-103.5110
"Cherry Hills Village","Colorado","CO",39.6375,-104.9480
"Cheyenne Wells","Colorado","CO",38.8192,-102.3521
"City of Creede","Colorado","CO",37.8486,-106.9253
"Cokedale","Colorado","CO",37.1444,-104.6216
"Collbran","Colorado","CO",39.2400,-107.9635
"Colorado Springs","Colorado","CO",38.8674,-104.7605
"Columbine Valley","Colorado","CO",39.5993,-105.0352
"Comanche Creek","Colorado","CO",39.6150,-104.3268
"Commerce City","Colorado","CO",39.8641,-104.8430
"Cortez","Colorado","CO",37.3503,-108.5768
"Craig","Colorado","CO",40.5171,-107.5554
"Crawford","Colorado","CO",38.7051,-107.6097
"Crested Butte","Colorado","CO",38.8676,-106.9773
"Crestone","Colorado","CO",37.9945,-105.6962
"Cripple Creek","Colorado","CO",38.7467,-105.1851
"Crook","Colorado","CO",40.8590,-102.8013
"Crowley","Colorado","CO",38.1935,-103.8597
"Dacono","Colorado","CO",40.0623,-104.9476
"Dakota Ridge","Colorado","CO",39.6192,-105.1344
"De Beque","Colorado","CO",39.3105,-108.2049
"Deer Trail","Colorado","CO",39.6154,-104.0434
"Del Norte","Colorado","CO",37.6786,-106.3539
"Delta","Colorado","CO",38.7560,-108.0772
"Denver","Colorado","CO",39.7620,-104.8758
"Dillon","Colorado","CO",39.6213,-106.0393
"Dinosaur","Colorado","CO",40.2399,-109.0066
"Dolores","Colorado","CO",37.4741,-108.4998
"Dove Creek","Colorado","CO",37.7668,-108.9071
"Downieville-Lawson-Dumont","Colorado","CO",39.7662,-105.6125
"Durango","Colorado","CO",37.2659,-107.8781
"Eads","Colorado","CO",38.4814,-102.7797
"Eagle","Colorado","CO",39.6366,-106.8125
"East Pleasant View","Colorado","CO",39.7278,-105.1572
"Eaton","Colorado","CO",40.5257,-104.7130
"Eckley","Colorado","CO",40.1124,-102.4883
"Edgewater","Colorado","CO",39.7508,-105.0627
"Elizabeth","Colorado","CO",39.3589,-104.6196
"Empire","Colorado","CO",39.7595,-105.6825
"Englewood","Colorado","CO",39.6468,-104.9942
"Erie","Colorado","CO",40.0404,-105.0399
"Estes Park","Colorado","CO",40.3699,-105.5217
"Evans","Colorado","CO",40.3660,-104.7390
"Fairmount","Colorado","CO",39.7931,-105.1711
"Fairplay","Colorado","CO",39.2245,-105.9965
"Federal Heights","Colorado","CO",39.8651,-105.0154
"Firestone","Colorado","CO",40.1565,-104.9494
"Flagler","Colorado","CO",39.2948,-103.0758
"Fleming","Colorado","CO",40.6821,-102.8396
"Florence","Colorado","CO",38.3836,-105.1114
"Floyd Hill","Colorado","CO",39.7217,-105.4313
"Fort Carson","Colorado","CO",38.7095,-104.7720
"Fort Collins","Colorado","CO",40.5477,-105.0656
"Fort Lupton","Colorado","CO",40.0827,-104.8068
"Fort Morgan","Colorado","CO",40.2537,-103.7903
"Fountain","Colorado","CO",38.6886,-104.6829
"Fowler","Colorado","CO",38.1304,-104.0264
"Foxfield","Colorado","CO",39.5881,-104.7857
"Fraser","Colorado","CO",39.9303,-105.8029
"Frederick","Colorado","CO",40.1088,-104.9701
"Frisco","Colorado","CO",39.5791,-106.0915
"Fruita","Colorado","CO",39.1548,-108.7305
"Garden City","Colorado","CO",40.3948,-104.6893
"Genoa","Colorado","CO",39.2782,-103.4984
"Georgetown","Colorado","CO",39.7179,-105.6942
"Gilcrest","Colorado","CO",40.2841,-104.7820
"Glendale","Colorado","CO",39.7036,-104.9352
"Glenwood Springs","Colorado","CO",39.5455,-107.3347
"Golden","Colorado","CO",39.7406,-105.2118
"Granada","Colorado","CO",38.0630,-102.3115
"Granby","Colorado","CO",40.0647,-105.9194
"Grand Junction","Colorado","CO",39.0877,-108.5673
"Grand Lake","Colorado","CO",40.2502,-105.8232
"Greeley","Colorado","CO",40.4152,-104.7706
"Green Mountain Falls","Colorado","CO",38.9344,-105.0238
"Greenwood Village","Colorado","CO",39.6153,-104.9131
"Grover","Colorado","CO",40.8691,-104.2259
"Gunnison","Colorado","CO",38.5480,-106.9246
"Gypsum","Colorado","CO",39.6287,-106.9348
"Hartman","Colorado","CO",38.1212,-102.2217
"Haswell","Colorado","CO",38.4525,-103.1649
"Haxtun","Colorado","CO",40.6420,-102.6297
"Hayden","Colorado","CO",40.4851,-107.2390
"Hillrose","Colorado","CO",40.3245,-103.5224
"Holly","Colorado","CO",38.0554,-102.1247
"Holyoke","Colorado","CO",40.5820,-102.2975
"Hooper","Colorado","CO",37.7460,-105.8777
"Hot Sulphur Springs","Colorado","CO",40.0748,-106.1032
"Hotchkiss","Colorado","CO",38.7990,-107.7133
"Hudson","Colorado","CO",40.0898,-104.6210
"Hugo","Colorado","CO",39.1362,-103.4731
"Idaho Springs","Colorado","CO",39.7444,-105.5006
"Ignacio","Colorado","CO",37.1180,-107.6376
"Iliff","Colorado","CO",40.7592,-103.0661
"Jackson Lake","Colorado","CO",40.3758,-104.0712
"Jamestown","Colorado","CO",40.1180,-105.3914
"Johnstown","Colorado","CO",40.3499,-104.9482
"Julesburg","Colorado","CO",40.9849,-102.2627
"Keenesburg","Colorado","CO",40.1327,-104.5380
"Kersey","Colorado","CO",40.3910,-104.5794
"Kim","Colorado","CO",37.2470,-103.3534
"Kiowa","Colorado","CO",39.3436,-104.4580
"Kit Carson","Colorado","CO",38.7628,-102.7954
"Kremmling","Colorado","CO",40.0567,-106.3784
"La Jara","Colorado","CO",37.2735,-105.9597
"La Junta","Colorado","CO",37.9791,-103.5471
"La Salle","Colorado","CO",40.3484,-104.7062
"La Veta","Colorado","CO",37.5085,-105.0085
"Lafayette","Colorado","CO",39.9946,-105.0998
"Lake City","Colorado","CO",38.0303,-107.3106
"Lakeside","Colorado","CO",39.7802,-105.0579
"Lakewood","Colorado","CO",39.6977,-105.1172
"Lamar","Colorado","CO",38.0740,-102.6154
"Larkspur","Colorado","CO",39.2319,-104.8924
"Las Animas","Colorado","CO",38.0695,-103.2236
"Leadville","Colorado","CO",39.2473,-106.2934
"Leadville North","Colorado","CO",39.2600,-106.3112
"Limon","Colorado","CO",39.2653,-103.6857
"Littleton","Colorado","CO",39.5915,-105.0188
"Lochbuie","Colorado","CO",40.0118,-104.7271
"Log Lane Village","Colorado","CO",40.2697,-103.8290
"Lone Tree","Colorado","CO",39.5309,-104.8709
"Longmont","Colorado","CO",40.1686,-105.1005
"Louisville","Colorado","CO",39.9710,-105.1441
"Loveland","Colorado","CO",40.4166,-105.0623
"Lyons","Colorado","CO",40.2230,-105.2692
"Manassa","Colorado","CO",37.1738,-105.9373
"Mancos","Colorado","CO",37.3466,-108.2939
"Manitou Springs","Colorado","CO",38.8575,-104.9127
"Manzanola","Colorado","CO",38.1088,-103.8668
"Marble","Colorado","CO",39.0716,-107.1909
"Mead","Colorado","CO",40.2318,-104.9911
"Meeker","Colorado","CO",40.0499,-107.8947
"Merino","Colorado","CO",40.4835,-103.3535
"Milliken","Colorado","CO",40.3115,-104.8561
"Minturn","Colorado","CO",39.5463,-106.3871
"Moffat","Colorado","CO",38.0027,-105.9065
"Monte Vista","Colorado","CO",37.5789,-106.1499
"Montezuma","Colorado","CO",39.5814,-105.8678
"Montrose","Colorado","CO",38.4689,-107.8590
"Monument","Colorado","CO",39.0736,-104.8467
"Morgan Heights","Colorado","CO",40.2875,-103.8275
"Morrison","Colorado","CO",39.6368,-105.2006
"Mount Crested Butte","Colorado","CO",38.9083,-106.9606
"Mountain View","Colorado","CO",39.7748,-105.0567
"Mountain Village","Colorado","CO",37.9324,-107.8577
"Naturita","Colorado","CO",38.2183,-108.5665
"Nederland","Colorado","CO",39.9633,-105.5071
"New Castle","Colorado","CO",39.5776,-107.5267
"Northglenn","Colorado","CO",39.9108,-104.9783
"Norwood","Colorado","CO",38.1290,-108.2919
"Nucla","Colorado","CO",38.2668,-108.5487
"Nunn","Colorado","CO",40.7137,-104.7889
"Oak Creek","Colorado","CO",40.2741,-106.9575
"Olathe","Colorado","CO",38.6083,-107.9833
"Olney Springs","Colorado","CO",38.1663,-103.9445
"Ophir","Colorado","CO",37.8568,-107.8312
"Orchard City","Colorado","CO",38.8144,-107.9705
"Ordway","Colorado","CO",38.2208,-103.7566
"Otis","Colorado","CO",40.1501,-102.9622
"Ouray","Colorado","CO",38.0276,-107.6734
"Ovid","Colorado","CO",40.9609,-102.3883
"Pagosa Springs","Colorado","CO",37.2675,-107.0307
"Palisade","Colorado","CO",39.1084,-108.3573
"Palmer Lake","Colorado","CO",39.1153,-104.9060
"Paoli","Colorado","CO",40.6128,-102.4718
"Paonia","Colorado","CO",38.8698,-107.5920
"Parachute","Colorado","CO",39.4508,-108.0529
"Parker","Colorado","CO",39.5084,-104.7753
"Peetz","Colorado","CO",40.9617,-103.1139
"Piedra","Colorado","CO",37.4418,-107.1684
"Pierce","Colorado","CO",40.6411,-104.7701
"Pitkin","Colorado","CO",38.6089,-106.5144
"Platteville","Colorado","CO",40.2220,-104.8340
"Poncha Springs","Colorado","CO",38.5140,-106.0944
"Pritchett","Colorado","CO",37.3701,-102.8588
"Pueblo","Colorado","CO",38.2701,-104.6114
"Ramah","Colorado","CO",39.1222,-104.1673
"Rangely","Colorado","CO",40.0861,-108.7795
"Raymer","Colorado","CO",40.6080,-103.8434
"Red Cliff","Colorado","CO",39.5092,-106.3699
"Rico","Colorado","CO",37.6891,-108.0316
"Ridgway","Colorado","CO",38.1573,-107.7545
"Rifle","Colorado","CO",39.5362,-107.7729
"Rockvale","Colorado","CO",38.3644,-105.1646
"Rocky Ford","Colorado","CO",38.0499,-103.7225
"Romeo","Colorado","CO",37.1718,-105.9854
"Rye","Colorado","CO",37.9212,-104.9322
"Saddle Ridge","Colorado","CO",40.3134,-103.8023
"Saguache","Colorado","CO",38.0865,-106.1410
"Salida","Colorado","CO",38.5298,-105.9979
"San Luis","Colorado","CO",37.2025,-105.4225
"Sanford","Colorado","CO",37.2574,-105.9007
"Sawpit","Colorado","CO",37.9947,-108.0021
"Security-Widefield","Colorado","CO",38.7489,-104.7142
"Sedgwick","Colorado","CO",40.9355,-102.5256
"Seibert","Colorado","CO",39.2980,-102.8695
"Severance","Colorado","CO",40.5265,-104.8650
"Sheridan","Colorado","CO",39.6468,-105.0182
"Sheridan Lake","Colorado","CO",38.4667,-102.2943
"Silt","Colorado","CO",39.5483,-107.6531
"Silver Cliff","Colorado","CO",38.1204,-105.4104
"Silver Plume","Colorado","CO",39.6957,-105.7264
"Silverthorne","Colorado","CO",39.6562,-106.0869
"Silverton","Colorado","CO",37.8107,-107.6649
